Name|Address|Category|Lng|Lat
一丞冷凍工業股份有限公司|高雄市大寮區過溪里莒光一街１２號|機械設備製造業|22.5807763|120.4272726
一丞機械有限公司|高雄市仁武區後安里永宏巷１２弄３９號|機械設備製造業|22.7137594|120.3414895
一休生技股份有限司大樹廠|高雄市大樹區竹寮里竹寮路３３５號|食品製造業|22.6631758|120.4216257
一六八輪胎股份有限公司|高雄市大寮區華東路64號|橡膠製品製造業|22.5886558|120.4331411
一力旺生物科技食品有限公司高雄廠|高雄市林園區中門里中門路３３９巷５０弄３１號|食品製造業|22.50761|120.3653551
一品企業有限公司|高雄市彌陀區鹽埕里山霸烟路１０５號|金屬製品製造業|22.7927705|120.2474955
一品製冰廠|高雄市苓雅區三多一路１１０號|食品製造業|22.6233324|120.3322994
一家電熱機械股份有限公司|高雄市大樹區九曲里瓦厝街３巷８２號|電力設備製造業,機械設備製造業|22.6438846|120.4156996
一強電梯業股份有限公司|高雄市大樹區九大路390號1樓|機械設備製造業|22.651876|120.4249557
一德生技有限公司|高雄市三民區達勇里安寧街４２１號|食品製造業|22.640214|120.304185
一成帆布行|高雄市路竹區竹南里中山路１３０７號|紡織業|22.8518672|120.261815
一流一食品工業股份有限公司|高雄市仁武區竹後里竹工三巷３８號|食品製造業|22.7132018|120.3320894
一益企業股份有限公司|高雄市湖內區大湖里民權路２１０巷５號|機械設備製造業|22.8924428|120.2433107
一研企業有限公司|高雄市前鎮區擴建路１之２８號８樓|電腦、電子產品及光學製品製造業|22.589787|120.302778
一翔木業企業行|高雄市梓官區赤崁東路345巷1之6號|木竹製品製造業|22.7421986|120.2536791
一記實業有限公司|高雄市大寮區琉球里農場路１７０號|金屬製品製造業|22.6179351|120.4298364
一誠塑膠企業社|高雄市大寮區後庄里民貴街１７號|塑膠製品製造業|22.6317014|120.3848465
一誠木器有限公司二廠|高雄市大寮區江山路16之6號|木竹製品製造業|22.6355792|120.410887
一誠木器有限公司|高雄市大寮區江山里江山路16之16號|木竹製品製造業|22.6355792|120.410887
一鳴電機企業行|高雄市林園區中門里中門路３３９巷２６弄５２號|電力設備製造業|22.5078787|120.3646701
七彩湖生技有限公司|高雄市燕巢區安招里安林一街5號|食品製造業|22.7881683|120.3302678
万嘉棠食品有限公司|高雄市彌陀區鹽埕里產業路202號|食品製造業|22.7939972|120.2405771
三三食品有限公司|高雄市大樹區竹寮里竹寮路３７４號|食品製造業|22.6629264|120.4225492
三五橡膠廠股份有限公司高雄加工廠|高雄市鳳山區輜汽路９號|橡膠製品製造業|22.6161521|120.333187
三井橡膠廠|高雄市鳳山區新強里新強路１２０巷３７號|橡膠製品製造業|22.6115911|120.3408176
三仕企業股份有限公司第三廠|高雄市岡山區育才路72巷9號|金屬製品製造業|22.8080004|120.2777462
三仕企業股份有限公司第二廠|高雄市岡山區本洲里育才路７２巷１７、１９號|金屬製品製造業|22.8086088|120.2770275
三仕企業股份有限公司|高雄市岡山區本洲里育才路７２巷１６號|金屬製品製造業,機械設備製造業|22.8092929|120.281179
三代食品有限公司|高雄市仁武區後安里後庄巷59之1號|食品製造業|22.7112534|120.3422094
三佰機械工業股份有限公司|高雄市大樹區竹寮里竹寮路１８８號|金屬製品製造業,機械設備製造業,汽車及其零件製造業,其他運輸工具及其零件製造業|22.665091|120.4255451
三傑飼料股份有限公司|高雄市路竹區復興路２８２號|食品製造業,化學材料製造業|22.8409741|120.2813454
三億一企業有限公司|高雄市燕巢區安招里安林一街11號|機械設備製造業|22.788122|120.3303054
三儷食品有限公司|高雄市鳥松區仁美里美山路１９巷２０弄３２號|食品製造業|22.6454291|120.3774057
三儷食品有限公司|高雄市鳳山區鎮北里鳳仁路９３之１９號|食品製造業|22.6395436|120.3721897
三元鐵工廠|高雄市橋頭區橋頭里成功路７號|金屬製品製造業|22.7614893|120.3088113
三六號碼頭加油站|高雄市前鎮區大華六街1號|加油站|22.605985|120.291256
三共興研磨材料有限公司仁武廠|高雄市仁武區竹後里鳳仁路３２９之１５號|非金屬礦物製品製造業|22.7039587|120.3433057
三凡生技研發股份有限公司|高雄市燕巢區安招里安林三街74號|食品製造業|22.7877178|120.3332047
三凱興業股份有限公司|高雄市大寮區潮寮里田單五街１０號|塑膠製品製造業|22.5731143|120.4308961
三力食品有限公司二廠|高雄市大樹區竹寮里竹寮路375號|食品製造業|22.6765665|120.4246751
三力食品有限公司高雄廠|高雄市大樹區竹寮里竹寮路３４３號|飲料製造業|22.6632729|120.4216423
三可實業社|高雄市岡山區嘉興里興北巷62弄12號|食品製造業|22.8229971|120.2997656
三味生技食品工廠|高雄市鳥松區鳥松里中正路興農巷１０３之１號|食品製造業|22.6604341|120.3671466
三和合成股份有限公司|高雄市路竹區北嶺里中山南路１號|化學材料製造業,化學製品製造業|22.8391158|120.2642309
三和耐火工業股份有限公司|高雄市仁武區竹後里鳳仁路３９８號|非金屬礦物製品製造業|22.7199198|120.3337021
三和製粉股份有限公司瓊林廠|高雄市燕巢區瓊林路1001號|其他製造業|22.7977784|120.3249851
三和製粉股份有限公司|高雄市燕巢區瓊林里安招路１０６８號|化學製品製造業|22.7891551|120.3148479
三城企業有限公司仁武廠|高雄市仁武區烏林里仁心路３２７巷１２號|石油及煤製品製造業|22.6819991|120.3560025
三多三路加油站|高雄市苓雅區三多三路264號|加油站|22.6143931|120.3051562
三多二路加油站|高雄市苓雅區三多二路80號|加油站|22.621368|120.3268344
三宇行國際貿易有限公司|高雄市岡山區壽峰里前峰路２８６巷２號|金屬製品製造業|22.797189|120.2858127
三山印刷廠|高雄市鳳山區縣口里三民路２６２號|印刷及資料儲存媒體複製業|22.6249178|120.3583916
三峰工業社|高雄市大樹區竹寮里竹寮路２１５號|金屬製品製造業,機械設備製造業|22.6651571|120.4245385
三嶸企業有限公司|高雄市大寮區中庄里立德路１８３號|基本金屬製造業,機械設備製造業,汽車及其零件製造業|22.6294799|120.3853498
三怡合企業有限公司美山廠|高雄市鳥松區仁美里美山路９７之１號|機械設備製造業|22.6496825|120.3916126
三怡合企業有限公司|高雄市鳥松區仁美里美山路９６號|機械設備製造業|22.6496737|120.3916123
三戶保溫材料廠股份有限公司高雄廠|高雄市大寮區過溪里華一街５２５號|非金屬礦物製品製造業|22.5752493|120.4113471
三捷科技股份有限公司高雄廠|高雄市大樹區竹寮里蓬萊路１３９之１號一樓|電腦、電子產品及光學製品製造業|22.6648006|120.423122
三新碾米廠|高雄市大寮區昭明里鳳林路四段150號|食品製造業|22.5378447|120.4085941
三新股份有限公司湖內廠|高雄市湖內區海埔里中山路一段８８７號|汽車及其零件製造業,其他運輸工具及其零件製造業|22.8994491|120.2341958
三昌合金鋼廠股份有限公司仁武廠|高雄市仁武區烏林里仁心路３１７號|基本金屬製造業,機械設備製造業|22.6925485|120.37064
三明電子有限公司|高雄市前鎮區新衙路286之4號3樓之1|電腦、電子產品及光學製品製造業|22.5820211|120.3161816
三星堂化學工廠|高雄市小港區光盛街６號|化學製品製造業|22.572386|120.355256
三普儀器有限公司|高雄市前鎮區擴建路１之２２號２樓|電腦、電子產品及光學製品製造業|22.590001|120.30261
三晶油漆有限公司|高雄市橋頭區芋寮里芋林路３０３號|化學製品製造業|22.7646056|120.283497
三木工程股份有限公司大發廠|高雄市大寮區過溪里華中路３０號|非金屬礦物製品製造業,基本金屬製造業|22.5823003|120.4287562
三杰加油站|高雄市六龜區光復路416號|加油站|22.9922068|120.6359678
三榮豐生物科技有限公司|高雄市岡山區永樂街2巷115號|食品製造業|22.7956065|120.3076535
三欣鋼鐵股份有限公司|高雄市仁武區後安里後庄巷５３號|基本金屬製造業|22.7112534|120.3422094
三武科技實業股份有限公司|高雄市燕巢區安招里安林二街６８號|電力設備製造業|22.7882245|120.3328645
三民加油站|高雄市三民區九如一路878號|加油站|22.6401886|120.3183466
三民汽車有限公司仁武廠|高雄市仁武區竹後里竹東路３０號|汽車及其零件製造業|22.7065948|120.3395455
三民鑄造股份有限公司大社廠|高雄市大社區保社里旗楠路１０３巷１５號|基本金屬製造業|22.7500465|120.3482732
三永裕鐵工廠股份有限公司二廠|高雄市仁武區竹後里水管路153號|金屬製品製造業|22.7063133|120.3353857
三永裕鐵工廠股份有限公司|高雄市仁武區水管路２４號|金屬製品製造業|22.7043939|120.3561557
三泰製藥廠有限公司|高雄市前鎮區新生路２２８號|食品製造業,飲料製造業,藥品及醫用化學製品製造業|22.5835791|120.3098767
三洋藥品工業股份有限公司大發廠|高雄市大寮區大寮里華西路４５號|飲料製造業,藥品及醫用化學製品製造業|22.5894601|120.4229905
三準精密科技股份有限公司|高雄市鳳山區鎮北里鳳仁路９７之２９號|機械設備製造業|22.638889|120.373192
三煜實業股份有限公司林園廠|高雄市林園區西溪里西溪路１９３巷１之３號|金屬製品製造業|22.49239|120.39082
三田實業有限公司|高雄市大社區保社里中正路389號|金屬製品製造業|22.7473485|120.3511726
三石礦棉工業股份有限公司高雄廠|高雄市大寮區華東路３５號|非金屬礦物製品製造業|22.5819638|120.4331592
三福化工股份有限公司高雄廠|高雄市小港區龍鳳里中亨街４５號|化學製品製造業|22.528725|120.3629567
三福氣體股份有限公司小港廠|高雄市小港區龍鳳里中亨街４５號、４５之１號|化學材料製造業,機械設備製造業|22.5189047|120.3598504
三禧實業有限公司|高雄市大樹區瓦厝街6之62號|化學製品製造業|22.6452111|120.4178486
三立電視股份有限公司|高雄市苓雅區區林富里青年一路３２號|其他製造業|22.6237445|120.3140413
三章實業股份有限公司|高雄市橋頭區芋寮里芋寮路８７號|紙漿、紙及紙製品製造業,石油及煤製品製造業|22.7608557|120.283983
三管輪實業有限公司燕巢廠|高雄市燕巢區角宿里四林路１２１巷１８弄１３號|金屬製品製造業|22.7769694|120.3476884
三聯科技股份有限公司高雄廠|高雄市岡山區本工六路17號|塑膠製品製造業,電腦、電子產品及光學製品製造業|22.8102372|120.2660703
三能螺栓工業股份有限公司二廠|高雄市岡山區本洲里本洲路３８１巷１２３號|金屬製品製造業|22.8049787|120.2773296
三能螺栓工業股份有限公司|高雄市岡山區岡山里新樂街１６４號|金屬製品製造業|22.8089181|120.2929063
三芳化學工業股份有限公司|高雄市仁武區鳳仁路４０２號|紡織業,皮革、毛皮及其製品製造業,化學材料製造業,塑膠製品製造業|22.7210098|120.3339456
三苓工業股份有限公司|高雄市前鎮區新強路６號|機械設備製造業|22.578914|120.317118
三英鋼鐵股份有限公司仁武廠|高雄市仁武區烏林里仁心路３１１號|金屬製品製造業|22.6920666|120.3699687
三茂木業股份有限公司|高雄市林園區西溪里西溪路１９３巷４號|木竹製品製造業,家具製造業|22.4905366|120.3933431
三裕木業股份有限公司|高雄市大寮區後庄里鳳屏一路５號|木竹製品製造業|22.6298543|120.3830245
三豐製冰有限公司|高雄市鳳山區鎮北里鳳仁路１０２之９號|其他製造業|22.6395399|120.3748322
三軸實業有限公司|高雄市鳳山區鎮北里鳳北路１１０、１１２號|其他運輸工具及其零件製造業|22.6416572|120.3673783
三逸企業社|高雄市岡山區嘉興里嘉華路181巷18弄5號|金屬製品製造業|22.82132|120.3107
三醇國際貿易股份有限公司角宿廠|高雄市燕巢區四林路119號|化學製品製造業|22.7763813|120.3461662
三醇國際貿易股份有限公司|高雄市燕巢區安招里安林路39號|化學製品製造業|22.7867099|120.329287
三鉉金屬企業有限公司|高雄市仁武區後安里後庄巷５６之４號|金屬製品製造業|22.7112534|120.3422094
三陽造船廠股份有限公司|高雄市旗津區上竹巷７９號|其他運輸工具及其零件製造業|22.580137|120.2933538
三雄油脂有限公司仁武廠|高雄市仁武區仁武里工業二路３１號|石油及煤製品製造業|22.6987996|120.3409385
三雄科技股份有限公司|高雄市仁武區竹後里鳳仁路３２９之１４號|電力設備製造業,機械設備製造業,家具製造業,其他製造業|22.7039556|120.3433075
三雄精密工業股份有限公司運通三廠|高雄市前鎮區新衙路２８６之５號１樓２８６之４號１樓|金屬製品製造業|22.582587|120.315343
三雄精密工業股份有限公司|高雄市前鎮區新衙路２８６之６號|金屬製品製造業,機械設備製造業|22.5820211|120.3161816
三順木箱包裝有限公司|高雄市大寮區華中路３２號|木竹製品製造業|22.5822877|120.4287563
三鴻精密機械股份有限公司|高雄市前鎮區新強路２６號|金屬製品製造業|22.580552|120.31581
上乘電業有限公司|高雄市林園區溪州二路２９０號１樓|電腦、電子產品及光學製品製造業|22.5097554|120.4010913
上內工業有限公司|高雄市大寮區琉球路43之88號|金屬製品製造業|22.6171976|120.409867
上冠品有限公司路竹廠|高雄市路竹區中山路88巷36號|基本金屬製造業|22.8580003|120.2614068
上勇電器有限公司|高雄市芩雅區日中里永樂街４５號|電力設備製造業|22.616566|120.309759
上友仁機械有限公司|高雄市三民區皓東路１７１之８號|機械設備製造業|22.6496949|120.3338189
上和精密股份有限公司路竹第二廠|高雄市路竹區鴨寮里保安路９４之１號|機械設備製造業|22.8478651|120.267858
上和精密股份有限公司|高雄市路竹區鴨寮里保安路９２號|金屬製品製造業,機械設備製造業|22.8478648|120.2678241
上品商業股份有限公司|高雄市橋頭區東林里里林東路１９７號|木竹製品製造業|22.7651005|120.3016158
上品王食品股份有限公司第二廠|高雄市阿蓮區阿蓮里和平路２０８號|食品製造業|22.8840351|120.3327042
上品王食品股份有限公司|高雄市阿蓮區阿蓮里和平路２０６號|食品製造業|22.8840351|120.3327042
上富螺絲股份有限公司|高雄市岡山區嘉華路４５之５０號|金屬製品製造業|22.8215319|120.3091921
上展國際實業有限公司岡山廠|高雄市岡山區為隨里為隨東路６２之３號|金屬製品製造業|22.8195157|120.289858
上峰塑膠工業股份有限公司|高雄市大寮區大寮區華東路６６號|塑膠製品製造業,金屬製品製造業|22.587188|120.433223
上慧機械企業有限公司|高雄市鳥松區仁美里水管路23巷212號|塑膠製品製造業,金屬製品製造業|22.646581|120.378026
上晟科技有限公司|高雄市梓官區大舍東路300巷11號|電腦、電子產品及光學製品製造業|22.7479888|120.2642499
上木有限公司|高雄市旗山區東昌里南寮巷14號|木竹製品製造業|22.870365|120.4901283
上林遊艇實業有限公司|高雄市林園區文賢里文賢南路３１０巷７號|其他運輸工具及其零件製造業,家具製造業|22.5005815|120.3926139
上校基業有限公司二廠|高雄市三民區十全里通化街88巷26號|印刷及資料儲存媒體複製業|22.642878|120.293618
上模企業社|高雄市大社區保社里民族路１３之１７號|金屬製品製造業,機械設備製造業|22.7485966|120.3539401
上正汽車股份有限公司|高雄市三民區民族一路４９１號|汽車及其零件製造業|22.6604584|120.3155665
上永興工業有限公司仁武廠|高雄市仁武區後安里興昌巷８之１號|金屬製品製造業,機械設備製造業,其他運輸工具及其零件製造業|22.710706|120.3408524
上泰工業有限公司大寮廠|高雄市大寮區琉球路43-109號|金屬製品製造業|22.6171976|120.409867
上源加油站|高雄市鳳山區鳳林路91號|加油站|22.6225103|120.3741094
上磊企業有限公司|高雄市大樹區和山里和山路４６３號|非金屬礦物製品製造業|22.701641|120.4042195
上祈企業股份有限公司|高雄市大寮區潮寮里田單一街１５號|橡膠製品製造業,塑膠製品製造業,基本金屬製造業|22.5769563|120.4331652
上福實業股份有限公司大寮廠|高雄市大寮區後庄里成功路１７２巷２３之２號|成衣及服飾品製造業|22.6386914|120.3915774
上秉實業有限公司岡山廠|高雄市岡山區本洲里本工西二路１號|金屬製品製造業|22.8119804|120.267276
上穩機械工業股份有限公司高雄廠|高雄市燕巢區安招里安北路３５７號|機械設備製造業|22.7915171|120.3450355
上穩電機企業有限公司|高雄市小港區港口里同利路１４號|電力設備製造業,機械設備製造業|22.5667977|120.329961
上穩電機企業有限公司|高雄市林園區中門里中門路３５５號|電力設備製造業,機械設備製造業|22.5093065|120.3644445
上等商行|高雄市鳳山區鳳仁路９２之１５號|食品製造業|22.636308|120.370075
上緯行國際有限公司|高雄市阿蓮區阿蓮里中正路２１６巷６８號|食品製造業|22.8826998|120.3372223
上興釣具企業社|高雄市岡山區嘉華路１３５之８０號|其他製造業|22.8217479|120.3104389
上薰不銹鋼工業有限公司|高雄市仁武區後安里永宏巷１２弄２３號|金屬製品製造業,機械設備製造業,家具製造業|22.7139787|120.3413989
上虹有限公司|高雄市三民區灣子里銀杉街２４號|印刷及資料儲存媒體複製業|22.655356|120.318265
上覲企業有限公司|高雄市燕巢區安招里安林三街６１號|食品製造業|22.7877461|120.3326076
上誠印刷股份有限公司|高雄市鳥松區仁美里美山路19巷11號|紙漿、紙及紙製品製造業|22.6432772|120.3780613
上豐加油站|高雄市左營區自由三路157號|加油站|22.671479|120.310795
上豐蛋品有限公司|高雄市燕巢區安招里安林三街５３號|食品製造業|22.787599|120.3322261
上趁企業社|高雄市路竹區下坑里大德路277巷118號|金屬製品製造業|22.862596|120.2992001
上農有限公司|高雄市三民區灣興里灣興街５５巷１２號|塑膠製品製造業|22.650891|120.310819
上采興業股份有限公司高雄廠|高雄市梓官區典寶里嘉展路116號|木竹製品製造業|22.7375429|120.2609085
上銘園藝事業有限公司|高雄市大寮區大寮路686巷28弄2號|化學材料製造業|22.591707|120.4112893
上銘有限公司|高雄市前鎮區新衙路２８８之９號４樓之２|電子零組件製造業|22.58243|120.314459
上鋼股份有限公司|高雄市小港區上林路2號|金屬製品製造業|22.5315997|120.3701452
上鎧鋼鐵股份有限公司|高雄市大寮區過溪里莒光二街１６號|基本金屬製造業,金屬製品製造業|22.5794326|120.4256644
上鑫工業有限公司|高雄市大寮區潮寮里田單二街８、１０號|金屬製品製造業|22.5759919|120.4320419
上鑫精密有限公司|高雄市仁武區鳳仁路３６９巷４１號|金屬製品製造業,電子零組件製造業,機械設備製造業|22.7142017|120.3345961
上陞企業社|高雄市鳳山區鎮北里鳳仁路１０２之３號|金屬製品製造業|22.63913|120.375027
上霖精密工業股份有限公司|高雄市大寮區中庄里立德路１８５號|金屬製品製造業|22.6295457|120.3853508
上順化工股份有限公司|高雄市大社區保社里旗楠路３９號|化學製品製造業|22.7460629|120.3435083
上順水泥製品企業股份有限公司|高雄市大寮區大寮里華東路４０號|紡織業,非金屬礦物製品製造業|22.5827845|120.4331586
上高有限公司|高雄市大社區保舍甲路55巷31、33、35、37號|食品製造業|22.7462158|120.3476507
世享工業股份有限公司|高雄市彌陀區中正南路77號|金屬製品製造業|22.7756077|120.2523637
世全鋼鐵企業股份有限公司|高雄市小港區世全路２號|金屬製品製造業|22.549479|120.373525
世和豐電機股份有限公司|高雄市前鎮區仁愛里新衙路２８８之９號６樓之１|電子零組件製造業,電腦、電子產品及光學製品製造業|22.5816486|120.3154833
世坤企業社二廠|高雄市大社區保社里旗楠路８０巷１０１號|機械設備製造業|22.7458687|120.3462067
世大牙板股份有限公司二廠|高雄市岡山區為隨里為隨西路3號|金屬製品製造業|22.8117291|120.291195
世大牙板股份有限公司|高雄市岡山區為隨里為隨西路１３巷５號|金屬製品製造業|22.8118054|120.2908288
世孟企業有限公司|高雄市仁武區竹後里２０鄰竹工二巷２４號|金屬製品製造業|22.7109571|120.3310393
世展橡膠工業有限公司|高雄市大樹區九曲里瓦厝街３巷１０２號|橡膠製品製造業|22.6445115|120.4150966
世岱興業股份有限公司|高雄市岡山區岡山里新樂街１８９號|基本金屬製造業,金屬製品製造業|22.810409|120.291803
世德工業股份有限公司|高雄市大寮區華西路２０號|金屬製品製造業|22.5805148|120.4228564
世捷貿易股份有限公司|高雄市小港區孔鳳路10之2號|紡織業|22.5800518|120.3702437
世新泵浦有限公司|高雄市仁武區烏林里仁林路２３４之５號|機械設備製造業|22.6980679|120.3732747
世新製罐股份有限公司|高雄市大寮中興村萬丹路253號|金屬製品製造業|22.6148977|120.3969925
世暘工廠產業股份有限公司本洲廠|高雄市岡山區本洲里本工二路１８號|金屬製品製造業|22.8146107|120.2717992
世暘工廠產業股份有限公司本洲抽線廠|高雄市岡山區本洲六街100號|基本金屬製造業|22.8170484|120.2643366
世暘工廠產業股份有限公司為隨廠|高雄市岡山區為隨西路15-7號|金屬製品製造業|22.8128121|120.290812
世暘工廠產業股份有限公司|高雄市岡山區為隨里為隨西路１５號|金屬製品製造業|22.8128121|120.290812
世朋食品有限公司|高雄市大寮區鳳林二路908巷58號1樓|食品製造業|22.5589624|120.4120502
世楙鋼鐵股份有限公司|高雄市燕巢區安招里成大街25號|金屬製品製造業|22.7880226|120.3370984
世濱環球食品企業有限公司|高雄市鳥松區仁美里仁德路９１號|食品製造業|22.6495961|120.3963392
世燊機械股份有限公司|高雄市林園區海墘路４６巷１２弄２２號|機械設備製造業,其他運輸工具及其零件製造業|22.5068016|120.3649211
世猛企業有限公司|高雄市彌陀區漯底里公園路１０５號|紡織業,家具製造業|22.7629291|120.2430635
世界資源亞太股份有限公司|高雄市岡山區本洲里本工路２０號|基本金屬製造業|22.8095588|120.2704109
世發豐企業有限公司第二廠|高雄市燕巢區安招里安林六街19號1樓|塑膠製品製造業|22.787629|120.3333851
世發豐企業有限公司|高雄市燕巢區安招里安林五街１７號|塑膠製品製造業|22.7862841|120.3304129
世群科技有限公司|高雄市三民區灣興里灣興街３９巷３號１樓|機械設備製造業|22.651067|120.3118931
世耀錩實業有限公司|高雄市鳥松區仁美里水管路３１號|機械設備製造業|22.6474191|120.3865863
世興五金有限公司|高雄市路竹區竹園里環球路9巷37弄36號|金屬製品製造業|22.8798054|120.275441
世良螺絲有限公司|高雄市岡山區為隨里為隨西路98號|金屬製品製造業|22.8132829|120.2906505
世華金屬科技股份有限公司|高雄市大寮區大寮里華東路５７號|基本金屬製造業|22.5876936|120.4331389
世藝企業有限公司|高雄市林園區中門里中門路３３９巷５０弄２７號|金屬製品製造業,機械設備製造業|22.507625|120.3654871
世裕金屬股份有限公司|高雄市林園區西溪里西溪路１９５號|基本金屬製造業|22.4911784|120.3935498
世豐益企業有限公司|高雄市林園區中門里海墘路46巷12弄6、8號|機械設備製造業|22.5068016|120.3649211
世豐螺絲股份有限公司彌陀廠|高雄市彌陀區文安里文安路東段１８０號|金屬製品製造業|22.7943384|120.2397562
世豐螺絲股份有限公司橋頭二廠|高雄市橋頭區頂鹽里復興西路810號B棟|金屬製品製造業|22.7439845|120.2723953
世豐螺絲股份有限公司橋頭廠|高雄市橋頭區頂鹽里復興西路８１０號|金屬製品製造業,機械設備製造業|22.738103|120.2687861
世豐螺絲股份有限公司永安廠|高雄市永安區維新里永工三路１號|金屬製品製造業|22.8093505|120.2500649
世鈞企業社|高雄市岡山區為隨西路105號|金屬製品製造業|22.8151753|120.2897771
世鋒生物科技有限公司大樹廠|高雄市大樹區龍目里龍目路１４３之２號|食品製造業|22.6860615|120.4145398
世鎧精密股份有限公司路竹廠|高雄市路竹區北嶺里民有路１６１號|基本金屬製造業|22.8213513|120.2776106
世鎧精密股份有限公司|高雄市岡山區本洲里本工一路１、3、5號|金屬製品製造業|22.8147898|120.273321
世音行有限公司高雄廠|高雄市岡山區碧紅里永樂街２巷１０７號|化學製品製造業|22.7954262|120.3010869
丞一機電有限公司|高雄市大寮區新厝里鳳林二路２９３之１２號|電力設備製造業,機械設備製造業|22.5765645|120.4090676
丞億科技有限公司|高雄市鳳山區文龍東路57巷2號|金屬製品製造業|22.640255|120.3738514
丞展企業有限公司|高雄市大寮區新厝里鳳林二路２９３之７號|塑膠製品製造業|22.5765645|120.4090676
丞彫企業有限公司|高雄市鳳山區鎮北里鳳仁路９２之１７號|其他製造業|22.6367042|120.3710451
丞曜實業有限公司ㄧ廠|高雄市岡山區嘉新東路2巷102號|金屬製品製造業|22.8234861|120.3258992
丞曜實業有限公司|高雄市岡山區本工路26號|金屬製品製造業|22.8087705|120.2696955
丞格有限公司|高雄市仁武區竹後里竹工三巷３１之３號|機械設備製造業|22.7131921|120.3320438
丞滿商標實業有限公司|高雄市阿蓮區阿蓮里和平路238號|紡織業|22.8846706|120.3329415
丞贊焊接科技股份有限公司|高雄市岡山區本工東二路36號|金屬製品製造業|22.8067094|120.2713122
中一國際股份有限公司|高雄市仁武區竹後里鳳仁路３６９巷４６號|機械設備製造業|22.7145382|120.3349435
中一工程有限公司燕巢廠|高雄市燕巢區安招里安林五街１號|金屬製品製造業,機械設備製造業|22.7864095|120.3312744
中一行實業股份有限公司|高雄市大寮區過溪里莒光一街５號|非金屬礦物製品製造業|22.5807817|120.4280968
中亞機械有限公司|高雄市林園區中門路339巷26弄46號|機械設備製造業|22.5077957|120.3659364
中信造船股份有限公司新天二廠|高雄市旗津區上竹里上竹巷１７０之６號|其他運輸工具及其零件製造業|22.5777736|120.2961291
中信造船股份有限公司新高廠|高雄市旗津區上竹巷１６４之６號|機械設備製造業,其他運輸工具及其零件製造業|22.583972|120.290726
中信造船股份有限公司林盛廠|高雄市旗津區南汕里中洲二路２６８號|其他運輸工具及其零件製造業|22.5855645|120.2894173
中信造船股份有限公司|高雄市旗津區北汕里中洲三路１０８巷９２號|其他運輸工具及其零件製造業|22.5990987|120.2802491
中全鋼鐵股份有限公司|高雄市鳥松區仁美里美山路３６巷７之３號|基本金屬製造業|22.6407543|120.3810685
中原製酒股份有限公司|高雄市林園區中門里中門路３３９巷２６弄３５號|飲料製造業|22.5079626|120.3645765
中喬貿易有限公司|高雄市岡山區三和里山隙路12號|金屬製品製造業|22.8274219|120.3363233
中嘉樹脂化學工業股份有限公司|高雄市路竹區竹西里中山路６號|化學材料製造業,化學製品製造業|22.8635863|120.2568998
中國人造纖維股份有限公司高雄總廠|高雄市大社區三奶里經建路８號|化學材料製造業,其他製造業|22.7248653|120.3369649
中國合成橡膠股份有限公司碳煙廠|高雄市林園區林園工業區石化四路一號|石油及煤製品製造業|22.4993296|120.4067253
中國建材塗料股份有限公司|高雄市楠梓區稔田里高楠公路９２３號|化學製品製造業|22.710392|120.3249402
中國時報文化事業股份有限公司高雄印刷工廠|高雄市小港區鳳宮里台機路１號|印刷及資料儲存媒體複製業|22.5621145|120.3486001
中國海洋開發股份有限公司|高雄市前鎮區漁港中一路８號|食品製造業|22.5731175|120.3151457
中國石油化學工業開發股份有限公司大社廠|高雄市大社區三奶里經建路１號|化學材料製造業|22.7259212|120.3403211
中國石油化學工業開發股份有限公司小港廠|高雄市小港區鳳森里中林路３４號|化學材料製造業|22.53567|120.364542
中國號誌工程有限公司|高雄市左營區大順一路９３號１３樓之１|電力設備製造業|22.6558283|120.3113433
中國鋼鐵結構股份有限公司|高雄市燕巢區安招里中興路500號|金屬製品製造業|22.780993|120.3600409
中國鋼鐵股份有限公司第三冷軋廠|高雄市小港區店鎮里嘉興街２號|基本金屬製造業,金屬製品製造業|22.560116|120.360141
中國防蝕有限公司|高雄市前鎮區千富街２４５號|金屬製品製造業|22.584842|120.313806
中大度量衡器行|高雄市大寮區過溪里濃公路256巷67號|電腦、電子產品及光學製品製造業|22.5726927|120.4161591
中妘生物科技股份有限公司|高雄市燕巢區鳳雄里海峰路６６號|化學製品製造業|22.7645505|120.3375661
中宇環保工程股份有限公司|高雄市小港區平和路２０１號|化學製品製造業,機械設備製造業|22.5671624|120.3319847
中安廢棄物處理股份有限公司|高雄市鳥松區仁美里美山路103號1樓|塑膠製品製造業|22.649718|120.3916177
中富彩色印刷有限公司|高雄市三民區德西里同盟三路７１０號|印刷及資料儲存媒體複製業|22.6498341|120.2883607
中展工業股份有限公司大發廠|高雄市大寮區大有二街１９號|機械設備製造業,其他運輸工具及其零件製造業|22.5873737|120.4256278
中山二路加油站|高雄市前金區中山二路569號|加油站|22.6217388|120.3011965
中崙加油站|高雄市鳳山區油管路38號|加油站|22.6083324|120.3496171
中揚工程股份有限公司|高雄市林園區東林西路２９８巷８５弄２４號|機械設備製造業|22.5058179|120.3876765
中日合成化學股份有限公司林園工廠|高雄市林園區石化四路６號|化學製品製造業|22.487794|120.408509
中日流體傳動股份有限公司|高雄市大寮區內坑里內坑路９之３８號|機械設備製造業|22.5811374|120.4057578
中日消防工業股份有限公司|高雄市湖內區中正路2段524號|電力設備製造業,機械設備製造業|22.9100687|120.2010721
中日焊條股份有限公司小港廠|高雄市小港區港口里東亞路１３號|橡膠製品製造業|22.5660941|120.3288125
中日金屬化工股份有限公司高雄工廠|高雄市大寮區華中路４４之１號|金屬製品製造業|22.5822121|120.4287573
中日電熱股份有限公司|高雄市小港區台機路１２號|電力設備製造業|22.5605241|120.3464926
中東亞企業有限公司|高雄市仁武區竹後里鳳仁路369巷28弄3號|化學製品製造業|22.7152184|120.3349521
中櫻實業股份有限公司|高雄市美濃區自強街一段５３７號|紙漿、紙及紙製品製造業|22.9044217|120.5421117
中正三路加油站|高雄市新興區中正三路9號|加油站|22.6306181|120.3103795
中正二路加油站|高雄市新興區中正二路166號|加油站|22.6305164|120.3170178
中正四路加油站|高雄市前金區中正四路251號|加油站|22.627483|120.291013
中洲造船廠有限公司|高雄市旗津區渡船巷１２３號|其他運輸工具及其零件製造業|22.5729127|120.3001957
中源地磅有限公司|高雄市大寮區鳳林二路２９３之６８號|機械設備製造業|22.5765645|120.4090676
中濱企業股份有限公司|高雄市楠梓區高楠公路898-2號|機械設備製造業|22.7106206|120.3256893
中特資源科技股份有限公司大社廠|高雄市大社區保社里旗楠路８０巷２２０之４號|基本金屬製造業|22.7417336|120.3435848
中環生貿實業股份有限公司|高雄市前鎮區信義里新衙路286之8號5樓之1|化學材料製造業|22.5820211|120.3161816
中環科技事業股份有限公司|高雄市前鎮區信義里新衙路２８６之８號３樓之１|金屬製品製造業|22.5820211|120.3161816
中禾興鋼鐵企業有限公司|高雄市大寮區三隆路493巷131-1號|金屬製品製造業|22.6008353|120.4020375
中科鋼鐵股份有限公司路竹廠|高雄市路竹區社西里大仁路７９１號|基本金屬製造業|22.8727786|120.2594482
中紘金屬有限公司|高雄市橋頭區芋寮里芋林路250號|金屬製品製造業,家具製造業|22.7646056|120.283497
中美水泥製品股份有限公司|高雄市鳳山區武松里建國路一段４１６號|非金屬礦物製品製造業|22.636048|120.365352
中聯興業股份有限公司|高雄市橋頭區甲南里鹽南路１３５號|木竹製品製造業,金屬製品製造業|22.7450902|120.287125
中聯資源股份有限公司利昌廠|高雄市小港區山明里利昌街１號|非金屬礦物製品製造業,金屬製品製造業|22.556935|120.3691849
中聯資源股份有限公司大發廠|高雄市大寮區潮寮里田單二街１１號|基本金屬製造業|22.5759872|120.4310318
中聯資源股份有限公司永春廠|高雄市小港區永春街4號|非金屬礦物製品製造業|22.5440958|120.3784998
中聯資源股份有限公司沿海廠|高雄市小港區沿海三路36號|非金屬礦物製品製造業|22.523057|120.366741
中聯資源股份有限公司臨海廠|高雄市小港區山明里沿海三路友成巷２號|非金屬礦物製品製造業|22.5362092|120.3730545
中聯資源股份有限公司長泰廠|高雄市小港區山明里長泰街４６號|塑膠製品製造業,基本金屬製造業|22.5448666|120.3745847
中聯資源股份有限公司|高雄市小港區山明里朝興路２號|化學材料製造業,非金屬礦物製品製造業|22.542521|120.380262
中能資源股份有限公司大發廠|高雄市大寮區華東路24號|非金屬礦物製品製造業|22.5787237|120.4334968
中能資源股份有限公司|高雄市小港區沿海三路38號|非金屬礦物製品製造業,金屬製品製造業|22.521907|120.36607
中興度量衡器廠|高雄市鳳山區鎮北里鳳仁路９８之２號|電腦、電子產品及光學製品製造業|22.638667|120.372819
中興新實業股份有限公司|高雄市楠梓區中陽里朝仁路３００號|其他運輸工具及其零件製造業|22.7214297|120.3289619
中華三路加油站|高雄市前金區中華三路136號|加油站|22.6306955|120.2956369
中華保溫企業有限公司|高雄市小港區東林路3之2號|金屬製品製造業|22.5447528|120.3769378
中華精機廠股份有限公司|高雄市仁武區烏林里水管路三段９０７號|機械設備製造業|22.7008842|120.380685
中華紙漿股份有限公司久堂廠|高雄市大樹區久堂里久堂路１１２.１１２之１.１４號|紙漿、紙及紙製品製造業|22.6579245|120.4179103
中華紙漿股份有限公司內惟廠|高雄市鼓山區龍井里鼓山三路２１號|印刷及資料儲存媒體複製業|22.656447|120.274523
中華紙漿股份有限公司高雄機械廠|高雄市大樹區久堂里久堂路１４號|機械設備製造業|22.6594059|120.4209831
中華食品實業股份有限公司|高雄市大樹區龍目路１１０之６號|食品製造業|22.6852614|120.416234
中設工業股份有限公司分廠|高雄市岡山區程香里岡燕路４８５巷９６號|汽車及其零件製造業,其他運輸工具及其零件製造業|22.7939182|120.3104734
中設工業股份有限公司|高雄市岡山區岡燕路４８５巷７７號|機械設備製造業,汽車及其零件製造業,其他運輸工具及其零件製造業|22.7926442|120.2979661
中達橡膠工業股份有限公司|高雄市大寮區大有一街４３號|橡膠製品製造業|22.5886125|120.4227189
中鋼碳素化學股份有限公司|高雄市小港區鳳森里中林路42、42之1號|石油及煤製品製造業,化學製品製造業|22.533353|120.361294
中鋼精密金屬工業股份有限公司|高雄市小港區中鋼路1號|基本金屬製造業,金屬製品製造業|22.5543912|120.3488566
中鋼鋁業股份有限公司臨海廠|高雄市小港區山明里東林路１７號|基本金屬製造業|22.542019|120.3734668
中隆工程有限公司|高雄市大寮區中庄里鳳屏一路７３８號|機械設備製造業|22.638653|120.3981902
中鴻鋼鐵股份有限公司冷軋廠|高雄市橋頭區芋寮里芋寮路３１７號|基本金屬製造業|22.7625221|120.2763368
中鴻鋼鐵股份有限公司熱軋廠|高雄市岡山區嘉興里興隆街５７６、之１、之２、之３、之５號|基本金屬製造業|22.8164453|120.3018462
中鴻鋼鐵股份有限公司鋼管廠|高雄市大寮區大寮里華中路１８號、興業路３０號|基本金屬製造業|22.5904037|120.4287405
中鷹加油站|高雄市仁武區鳳仁路321號|加油站|22.7120978|120.3378238
丸欣實業有限公司|高雄市仁武區竹後里竹工三巷３３號|塑膠製品製造業,機械設備製造業|22.7133262|120.3320581
丸長螺絲股份有限公司|高雄市永安區維新里永工九路２之２號|金屬製品製造業|22.8159459|120.2513478
主格實業股份有限公司二廠|高雄市大寮區光華路２５１巷６號|金屬製品製造業|22.5802253|120.4103532
主格實業股份有限公司|高雄市大寮區過溪里濃公路２５６巷３９號|基本金屬製造業|22.5726927|120.4161591
主益企業有限公司|高雄市大寮區田單二街２號|基本金屬製造業|22.5760023|120.4331582
久中五金企業有限公司|高雄市路竹區竹南里中山路1577號|金屬製品製造業|22.8491528|120.2623282
久井旗山交流道吉加油站|高雄市旗山區旗屏路17號|加油站|22.869777|120.493094
久井旗山交流道如加油站|高雄市旗山區旗屏一路118號|加油站|22.8786298|120.4964134
久井旗山交流道意加油站|高雄市旗山區旗屏一路319號|加油站|22.871199|120.498405
久井湖內加油站|高雄市湖內區中山路二段3號|加油站|22.9001697|120.233307
久井美濃加油站|高雄市美濃區中山路二段15號|加油站|22.900908|120.527735
久井路科加油站|高雄市路竹區中山南路118號|加油站|22.8222843|120.2681188
久佑金屬有限公司|高雄市大寮區鳳屏二路１２８號|電力設備製造業|22.6405553|120.4075159
久倫工業社|高雄市三民區博惠里凱旋一路210號|機械設備製造業|22.638334|120.316075
久億工業股份有限公司|高雄市仁武區竹後里鳳仁路３１９之５號|金屬製品製造業|22.7115281|120.3384411
久利氣體工業有限公司|高雄市岡山區白米里寶米路8號|化學材料製造業|22.7795809|120.2818537
久大順有限公司|高雄市燕巢區安招里安林三街６６號|食品製造業|22.7876448|120.3328383
久奇企業社|高雄市阿蓮區南蓮里中正路２３巷３號|紡織業|22.8805991|120.3415902
久得洋酒業股份有限公司|高雄市燕巢區安招里安林三街４９號|飲料製造業|22.7876327|120.3320388
久恩企業股份有限公司二廠|高雄市仁武區五和里八德二路89號|金屬製品製造業|22.6981944|120.3290648
久慶國際船業股份有限公司|高雄市茄萣區莒光路3段286號|其他運輸工具及其零件製造業,其他製造業|22.9112173|120.1871241
久掌實業股份有限公司|高雄市大樹區竹寮里竹寮路１９４號|金屬製品製造業,其他運輸工具及其零件製造業|22.6650991|120.4254707
久曜電機企業有限公司|高雄市大社區保社里民族路１３之１３號|機械設備製造業|22.7485966|120.3539401
久本昌有限公司|高雄市燕巢區安林三街50、52號|食品製造業|22.7875616|120.3320585
久瑞螺絲有限公司|高雄市岡山區嘉興里嘉興路37之23號|金屬製品製造業|22.8145506|120.3019033
久發環保工程股份有限公司二廠|高雄市大寮區興業路２１號|基本金屬製造業|22.5905318|120.4280065
久發環保工程股份有限公司|高雄市大寮區潮寮里華東路１５之１號|塑膠製品製造業,基本金屬製造業|22.5715902|120.4322714
久盛瀝青工業股份有限公司高雄廠|高雄市燕巢區角宿里四林路一四０之一號|石油及煤製品製造業|22.7745668|120.345834
久竹實業有限公司|高雄市大寮區義和里鳳屏二路３７７之３號|電子零組件製造業|22.6432608|120.4226483
久統國際企業有限公司|高雄市燕巢區安招路1058巷60號|化學製品製造業|22.7908579|120.339671
久美特企業股份有限公司二廠|高雄市岡山區本工七路2號|金屬製品製造業|22.8075429|120.2686175
久美特企業股份有限公司本洲廠|高雄市岡山區本洲里本洲路１９６號|金屬製品製造業|22.8072259|120.2652601
久耐銹企業股份有限公司|高雄市岡山區灣裡里岡山北路１９３巷１０、１２號|金屬製品製造業|22.811852|120.278288
久能興業有限公司永安廠|高雄市永安區維新里維新路83之7號|機械設備製造業|22.8081083|120.2503699
久能興業有限公司|高雄市永安區維新里維新路光明１０巷８之１６號|機械設備製造業|22.8076432|120.2452436
久鉅機電股份有限公司|高雄市大寮區大寮里利民街２８號|電力設備製造業|22.5889002|120.4342987
久陽精密股份有限公司三廠|高雄市梓官區梓信里四維路自強巷４６號|金屬製品製造業|22.7641004|120.2538509
久陽精密股份有限公司二廠|高雄市梓官區梓信里四維路１８１號|金屬製品製造業|22.7651098|120.2537898
久陽精密股份有限公司|高雄市橋頭區西林里芋林路２９７、２９９、３１１號|金屬製品製造業|22.7646138|120.2837073
久隆企業社|高雄市岡山區頂潭路７５號|機械設備製造業|22.7773413|120.2690957
久隆食品廠|高雄市湖內區民生街131之2號|食品製造業|22.8784814|120.2494797
久集電線電纜股份有限公司|高雄市三民區熱河二街２３８號|電力設備製造業|22.644765|120.295203
之宜實業有限公司|高雄市林園區溪州二路359巷12號|木竹製品製造業|22.5127458|120.403068
乘寬工業股份有限公司二廠|高雄市岡山區光潭路26號|塑膠製品製造業|22.7759071|120.275636
乘寬工業股份有限公司|高雄市岡山區石潭里光潭路１６號|塑膠製品製造業|22.775226|120.2752688
乙信企業股份有限公司|高雄市鳳山區鳳仁路２３４號|印刷及資料儲存媒體複製業,塑膠製品製造業,金屬製品製造業|22.6377741|120.3732747
乙宏興業股份有限公司|高雄市仁武區竹後里竹工二巷８號|塑膠製品製造業|22.7100319|120.332404
乙峰實業有限公司|高雄市燕巢區安招里安林二街４０號|塑膠製品製造業|22.7878446|120.3316088
乙慧企業社|高雄市路竹區鴨寮里復興路367巷88號|金屬製品製造業|22.8462249|120.279056
乙祐實業有限公司|高雄市仁武區仁武里工業二路１７巷５３號|橡膠製品製造業,機械設備製造業|22.6987996|120.3409385
乙誠企業社|高雄市路竹區竹南里民富街28號|機械設備製造業,汽車及其零件製造業|22.853125|120.2624825
乙鈦企業有限公司|高雄市仁武區鳳仁路165巷31-2號|金屬製品製造業|22.7142991|120.3348493
乙騏企業社|高雄市三民區灣興里民族一路３７３巷３５號|電力設備製造業|22.654519|120.313999
九品香食品工廠|高雄市鳳山區輜汽南路1號|食品製造業|22.6160056|120.3329156
九大加油站|高雄市大樹區竹寮路114之20號|加油站|22.6607216|120.426061
九德鋼索工業股份有限公司|高雄市大社區大社里大社路３５１號|基本金屬製造業,金屬製品製造業|22.7374332|120.3612583
九春工業股份有限公司二廠|高雄市大寮區光明路三段1253號|基本金屬製造業,機械設備製造業|22.6287364|120.4085493
九春工業股份有限公司|高雄市大寮區中庄里四維路３８１號|基本金屬製造業,機械設備製造業|22.6375537|120.3984091
九曲堂加油站|高雄市大寮區鳳屏二路297號|加油站|22.6419507|120.4179893
九玄科技有限公司|高雄市前鎮區高雄加工出口區東九街1-2及2-2號|塑膠製品製造業|22.6007613|120.2924226
九瑩科技股份有限公司燕巢廠|高雄市燕巢區安招里安林二街７０號|金屬製品製造業,機械設備製造業,家具製造業|22.7882426|120.332947
九茂電梯有限公司|高雄市岡山區為隨里為隨西路６７巷２７號|機械設備製造業|22.8148126|120.2884209
九鑫鋼鐵有限公司|高雄市岡山區本洲里本工五路２６、２６之１號|金屬製品製造業|22.8094619|120.2700418
九饗食品有限公司|高雄市彌陀區南寮里南寮路中山巷28號|食品製造業|22.7600506|120.2394068
九騰企業有限公司|高雄市岡山區岡山北路2巷50號|金屬製品製造業|22.8101046|120.2882879
九龍齋食品有限公司|高雄市前鎮區鎮北里新生路５巷３８號|食品製造業,飲料製造業|22.5877476|120.304389
乾佑工業股份有限公司高雄廠|高雄市小港區大業南路１５、１５之１號|汽車及其零件製造業,其他運輸工具及其零件製造業|22.5241364|120.3635094
乾利有限公司|高雄市岡山區岡山北路2巷36號|金屬製品製造業|22.8088315|120.2883517
乾宏有限公司|高雄市鳳山區鎮北里鳳仁路１００之３８號|木竹製品製造業,機械設備製造業,汽車及其零件製造業,其他運輸工具及其零件製造業|22.639328|120.373893
乾惠工業股份有限公司|高雄市小港區大業南路４０號|石油及煤製品製造業,其他運輸工具及其零件製造業|22.530477|120.367587
乾瑞實業股份有限公司大發廠|高雄市大寮區潮寮里田單三街８號|橡膠製品製造業|22.5750373|120.4301395
二本海陸物產開發有限公司|高雄市鳥松區美山路19巷8之3號|食品製造業|22.6438076|120.3769463
二苓加油站|高雄市小港區大業北路218號|加油站|22.5621873|120.3491175
于弘有限公司|高雄市燕巢區角宿里四林路１２１巷１８弄２號|電力設備製造業|22.7769694|120.3476884
于統企業有限公司|高雄市鳥松區仁美里水管路１７號|機械設備製造業|22.6470946|120.3870847
于菁企業有限公司二廠|高雄市仁武區仁武里八德一路8號|機械設備製造業|22.6957218|120.3452935
于菁企業有限公司|高雄市仁武區竹後里鳳仁路２８５巷６號|非金屬礦物製品製造業,金屬製品製造業,機械設備製造業,汽車及其零件製造業,其他運輸工具及其零件製造業|22.7034352|120.3420666
互壬興業有限公司|高雄市燕巢區深水里深興路１３４號|塑膠製品製造業|22.7719933|120.3885375
互建紙器有限公司|高雄市仁武區仁心路233號|紙漿、紙及紙製品製造業|22.6879068|120.3661881
互得惠企業有限公司|高雄市前鎮區信義里新衙路２９６巷８１弄１３號|食品製造業|22.5824947|120.31276
互發貿易有限公司|高雄市林園區中門里中門路３３９巷２６弄３６號|食品製造業|22.5079244|120.3646652
五一五企業股份有限公司高雄廠|高雄市彌陀區鹽埕里產業路１５８號|石油及煤製品製造業|22.7928456|120.2411337
五實企業股份有限公司ㄧ廠|高雄市路竹區社東里東安路３８巷９１弄１９號|機械設備製造業,汽車及其零件製造業|22.8645028|120.2698482
五實企業股份有限公司第二廠|高雄市路竹區甲北里大仁路２６號|機械設備製造業|22.8721104|120.2724731
五實企業股份有限公司|高雄市路竹區甲北里大仁路９６號|機械設備製造業|22.871499|120.2750568
五洲倉儲股份有限公司|高雄市前鎮區漁港北三路22號4樓|食品製造業|22.5741992|120.3126014
五洲熱處理工業有限公司|高雄市岡山區程香里岡燕路４８５巷５號|基本金屬製造業,金屬製品製造業|22.7919986|120.3052133
五洲螺絲有限公司|高雄市岡山區本工東二路36、36-1號|金屬製品製造業|22.8067094|120.2713122
五甲加油站|高雄市鳳山區五甲一路232號|加油站|22.618372|120.354645
五甲金屬企業股份有限公司二廠|高雄市岡山區協和里巨輪路230之1號|機械設備製造業|22.7984529|120.279903
五詮精密科技股份有限公司|高雄市岡山區本洲里本工六路１９號|金屬製品製造業|22.810269|120.2658243
五達科技有限公司|高雄市大樹區九曲里４鄰瓦厝街３巷１１號|金屬製品製造業|22.6444505|120.4167935
井富油脂企業股份有限公司|高雄市大寮區鳳屏一路808號|食品製造業|22.638653|120.3981902
井序企業有限公司|高雄市路竹區復興路168號|金屬製品製造業|22.8489849|120.2783005
井強興業有限公司|高雄市小港區桂平街６５號一樓|化學製品製造業|22.58379|120.352895
亘盈實業股份有限公司|高雄市三民區灣興里灣興街３８號|金屬製品製造業,其他製造業|22.6511739|120.3133702
亞之榮興業有限公司湖內廠|高雄市湖內區海埔里信義路236之1號|塑膠製品製造業|22.9012746|120.2201359
亞之榮興業有限公司|高雄市湖內區葉厝里中正路一段５１３巷５７弄２號|塑膠製品製造業|22.9071808|120.2153889
亞冠冷凍機械股份有限公司萬大廠|高雄市大寮區農場路203號|機械設備製造業|22.616698|120.428637
亞喬企業股份有限公司|高雄市大寮區過溪里光華路１７之１號|金屬製品製造業|22.582738|120.424534
亞太環境科技股份有限公司高雄廠|高雄市三民區灣興里灣興街３９巷８號、１０號|機械設備製造業|22.6513696|120.3118761
亞太精鍍股份有限公司|高雄市岡山區本洲里本工六路１２號|金屬製品製造業|22.809084|120.2678438
亞太隆剛鋼鐵股份有限公司|高雄市前鎮區鎮港路７號|基本金屬製造業,金屬製品製造業,其他運輸工具及其零件製造業|22.582744|120.3089767
亞寧化工企業股份有限公司|高雄市仁武區水管路９１號|化學製品製造業|22.7064457|120.3322278
亞州船舶工程有限公司三廠|高雄市大寮區潮寮里富民街１２號|金屬製品製造業|22.5774497|120.4299162
亞州船舶工程有限公司二廠|高雄市大寮區潮寮里富民街１１號|金屬製品製造業|22.5772703|120.4298091
亞帝發工業股份有限公司|高雄市岡山區本洲里本工西一路１號|其他運輸工具及其零件製造業|22.812704|120.2697928
亞得利亞科技股份有限公司|高雄市前鎮區新衙路２８６之５號３樓之１|機械設備製造業|22.582587|120.315343
亞景企業有限公司|高雄市鳳山區輜汽南路３號|基本金屬製造業|22.6160056|120.3329156
亞東工業氣體股份有限公司前鎮廠|高雄市前鎮區高雄加工出口區南六路5號1樓|化學材料製造業|22.6007613|120.2924226
亞東工業氣體股份有限公司大社廠|高雄市大社區三奶里三民路539之5號|化學材料製造業|22.7309441|120.3426131
亞東工業氣體股份有限公司高雄廠|高雄市路竹區後鄉里順安路３３１號|化學材料製造業|22.8344724|120.2413926
亞東軸封股份有限公司|高雄市燕巢區安招里成大街７號|機械設備製造業|22.7880226|120.3370984
亞東預拌混凝土股份有限公司仁武廠|高雄市仁武區鳳仁路322號|非金屬礦物製品製造業|22.7129021|120.3377599
亞東預拌混凝土股份有限公司小港廠|高雄市前鎮區明孝里金福路１０號|非金屬礦物製品製造業|22.5692151|120.3250859
亞東預拌混凝土股份有限公司高雄廠|高雄市大寮區永芳里萬丹路372號|非金屬礦物製品製造業|22.6133186|120.399403
亞果生醫股份有限公司|高雄市路竹區路科二路57號3樓|其他製造業|22.8286823|120.2589894
亞柏仁武加油站|高雄市仁武區澄觀路一段1111號|加油站|22.701745|120.3591782
亞柏八卦寮加油站|高雄市仁武區八德西路433號|加油站|22.6817378|120.3292109
亞柏小港加油站|高雄市小港區東亞路2號|加油站|22.568347|120.326441
亞泰活塞股份有限公司|高雄市湖內區太爺里中山路２段２巷５３弄１１號|汽車及其零件製造業,其他運輸工具及其零件製造業|22.9013325|120.2352193
亞洲合板股份有限公司高雄廠|高雄市三民區德西里中華二路４１號|木竹製品製造業|22.6393229|120.291805
亞洲唱片有限公司|高雄市三民區民壯路５９號|印刷及資料儲存媒體複製業|22.640178|120.340757
亞洲大發站加氣站|高雄市大寮區鳳林二路806號|加氣站|22.5816248|120.4071474
亞洲恆美企有限公司|高雄市大樹區瓦厝街6之149號|化學製品製造業|22.6452111|120.4178486
亞洲漢威螺帽股份有限公司一廠|高雄市路竹區路科一路5號1樓A區|金屬製品製造業|22.8294678|120.2627933
亞洲漢威螺帽股份有限公司|高雄市路竹區北嶺六路35號|金屬製品製造業|22.8292964|120.2716303
亞洲聚合股份有限公司林園廠|高雄市林園區工業一路３號|化學材料製造業|22.5117752|120.4043721
亞洲電腦股份有限公司|高雄市前鎮區擴建路１之１７號１４樓|電腦、電子產品及光學製品製造業|22.5903|120.302675
亞港造船股份有限公司二廠|高雄市小港區山明里世全路３之１號|電腦、電子產品及光學製品製造業,機械設備製造業,其他運輸工具及其零件製造業|22.547727|120.37117
亞港造船股份有限公司|高雄市小港區世全路３之３號|其他運輸工具及其零件製造業|22.547866|120.371387
亞源科技股份有限公司高雄廠|高雄市大社區中里里民生路261、263號|電子零組件製造業|22.7217671|120.3471244
亞炬企業股份有限公司|高雄市大寮區大寮里大有四街６號|金屬製品製造業,機械設備製造業,其他運輸工具及其零件製造業|22.5848384|120.4262579
亞特仕股份有限公司高雄二廠|高雄市小港區高鳳路83-2號|金屬製品製造業|22.5811975|120.3701701
亞科工業有限公司|高雄市大寮區利民街１７號|基本金屬製造業,其他製造業|22.590428|120.4343048
亞良興業有限公司|高雄市大寮區光華路277-1號|木竹製品製造業|22.5825943|120.4121664
亞資科技股份有限公司|高雄市前鎮區擴建路１之１６號１４樓|電腦、電子產品及光學製品製造業|22.590335|120.302733
亞達材料科技股份有限公司|高雄市仁武區竹門巷6號|塑膠製品製造業|22.7085335|120.3348668
亞鉑化工股份有限公司|高雄市楠梓區經建路５之１巷７號|化學製品製造業,基本金屬製造業|22.723011|120.332072
交盛螺絲有限公司岡山廠|高雄市岡山區台上里成功路４６０巷１０之１號|基本金屬製造業,金屬製品製造業|22.8107673|120.3005878
交通部台灣鐵路管理局高雄機廠|高雄市鳳山區武慶二路２２１號|其他運輸工具及其零件製造業|22.6159261|120.3323013
亨剛精密工業有限公司湖內廠|高雄市湖內區民生街127號|金屬製品製造業,機械設備製造業,汽車及其零件製造業|22.8784814|120.2494797
亨廣科技有限公司|高雄市大樹區瓦厝街6之58號|電力設備製造業|22.6452111|120.4178486
亨昌鐵材股份有限公司鳳旗廠|高雄市燕巢區鳳雄里鳳旗路３００號|金屬製品製造業|22.7523338|120.3532777
亨欣工業股份有限公司|高雄市小港區永光街２之２號|金屬製品製造業|22.552173|120.369055
亨泰機械有限公司|高雄市大樹區竹寮里竹寮路１７３號|金屬製品製造業,汽車及其零件製造業,其他運輸工具及其零件製造業|22.6650535|120.4258967
亨泰食品有限公司|高雄市路竹區大同路525之7號|食品製造業|22.8537701|120.2673175
亨輝工業有限公司分廠|高雄市梓官區梓平里和平路１３之６號|金屬製品製造業|22.7530293|120.2616626
亨輝工業有限公司|高雄市梓官區梓平里和平路１３之１０號|金屬製品製造業|22.7530293|120.2616626
亨金工業社二廠|高雄市岡山區華崗里華崗路９、１１號|機械設備製造業|22.8251578|120.3278666
亨錏企業有限公司|高雄市鳳山區鎮北里鳳仁路１００之２５號|機械設備製造業|22.639198|120.373489
亨順實業有限公司|高雄市三民區灣興里民族一路３３５巷４４號|電力設備製造業|22.654312|120.313648
亨龍電機股份有限公司|高雄市茄萣區白雲里莒光路三段288-2號|機械設備製造業|22.9112173|120.1871241
享德企業股份有限公司|高雄市左營區民族一路８５１之1號|木竹製品製造業|22.67611|120.318031
享輝電子有限公司|高雄市大寮區新厝里鳳林二路２９３之８２號２樓|電子零組件製造業|22.5765645|120.4090676
京宸生醫科技有限公司|高雄市鳳山區鎮北里北賢街１８號|食品製造業|22.6405122|120.3701165
京明工程企業股份有限公司一廠|高雄市前鎮區新生路９巷４３號|金屬製品製造業,其他運輸工具及其零件製造業|22.5873402|120.304575
京明工程企業股份有限公司三廠|高雄市前鎮區新生路９巷４１號|電力設備製造業,機械設備製造業|22.5873574|120.3046234
京明工程企業股份有限公司二廠|高雄市前鎮區臨水南路４２之１號|金屬製品製造業,機械設備製造業,其他運輸工具及其零件製造業|22.5872155|120.3046856
京明工程企業股份有限公司大發廠|高雄市大寮區大寮里大有二街２４號|金屬製品製造業,其他運輸工具及其零件製造業|22.5874815|120.425032
京樺塑膠有限公司|高雄市大寮區過溪里濃公路５７號|塑膠製品製造業|22.5740861|120.4113802
京瓷洲際電子股份有限公司|高雄市楠梓區楠梓加工出口區開發路8號|電子零組件製造業|22.7222297|120.3061639
京甫企業有限公司|高雄市三民區灣子里大順二路７５２號|印刷及資料儲存媒體複製業|22.654205|120.318315
京達醫材科技股份有限公司|高雄市路竹區路科二路59號1樓|其他製造業|22.8282617|120.2595254
京鷹企業股份有限公司二廠|高雄市前鎮區新衙路286號3樓之1|電子零組件製造業|22.5820482|120.3160482
京鷹企業股份有限公司|高雄市前鎮區信義里新衙路２８６號８樓之３|電子零組件製造業|22.5820482|120.3160482
亮宇實業有限公司|高雄市大寮區鳳林二路２９３之６３號|機械設備製造業,汽車及其零件製造業,其他運輸工具及其零件製造業|22.5765645|120.4090676
亮輝利精密工業股份有限公司|高雄市大寮區華東路６０號|金屬製品製造業,機械設備製造業|22.5862123|120.4332505
人昌事務用品股份有限公司|高雄市三民區灣愛里大昌一路３４５號|印刷及資料儲存媒體複製業|22.6584296|120.3186015
人杰老四川餐飲管理顧問股份有限公司|高雄市大寮區中庄里興中街13號1樓|食品製造業|22.6295645|120.3867778
人榮實業有限公司|高雄市大樹區大樹里中正一路大坪巷３６號|塑膠製品製造業|22.6783138|120.4278194
仁利工業有限公司二廠|高雄市鳥松區仁美里美山路70巷21號|皮革、毛皮及其製品製造業|22.6432853|120.3849928
仁利工業有限公司|高雄市鳥松區仁美里美山路７０巷８之１５號|皮革、毛皮及其製品製造業|22.6432853|120.3849928
仁喜紙管廠|高雄市大寮區大寮里大有二街３號|紙漿、紙及紙製品製造業|22.5874186|120.4287434
仁昱機械有限公司|高雄市小港區小港里光和路３１號|機械設備製造業|22.5569699|120.3391833
仁望有限公司|高雄市大寮區大寮里大業街４４號|橡膠製品製造業,金屬製品製造業|22.5863529|120.4305724
仁武加油站|高雄市仁武區鳳仁路282號|加油站|22.7034718|120.3442916
仁武機械股份有限公司仁武廠|高雄市仁武區後安里後庄巷１２４號|機械設備製造業,汽車及其零件製造業|22.7113994|120.3433634
仁武正順車刀有限公司二廠|高雄市大社區保社里民族路12-10號|金屬製品製造業|22.7460312|120.3527888
仁武正順車刀有限公司|高雄市大社區保社里民族路１３號|金屬製品製造業|22.7485966|120.3539401
仁興有限公司|高雄市燕巢區安招里安林五街27號|食品製造業|22.7863933|120.3309582
仁記電機有限公司大發廠|高雄市大寮區內坑里內坑路９之５、９之６號|電力設備製造業,機械設備製造業|22.5811374|120.4057578
仁記食品舖|高雄市大寮區三隆里興隆路８６號|食品製造業|22.6040572|120.4057157
今順加油站|高雄市仁武區仁雄路500號|加油站|22.6732013|120.3330632
介壽路加油站|高雄市岡山區介壽東路157號|加油站|22.785269|120.307232
介慶企業股份有限公司仁武廠|高雄市仁武區工業二路10之1號|塑膠製品製造業|22.6996345|120.3424041
介慶企業股份有限公司梓官廠|高雄市梓官區梓平里八德路408號|塑膠製品製造業|22.7540314|120.252955
介浤企業有限公司|高雄市鳳山區鳳仁路２４２巷１６號|機械設備製造業|22.633143|120.362229
介興電機工程有限公司|高雄市燕巢區安招里安林五街１１號|電力設備製造業|22.7861578|120.3301175
介豪有限公司大寮廠|高雄市大寮區琉球里農場路１９１號|塑膠製品製造業|22.6172727|120.4276274
介隆興齒輪股份有限公司二廠|高雄市梓官區梓平里和平路１４５之１６號|汽車及其零件製造業,其他運輸工具及其零件製造業|22.7563569|120.2622538
介隆興齒輪股份有限公司梓官廠|高雄市梓官區梓平里和平路１４５之２０號|金屬製品製造業,機械設備製造業,汽車及其零件製造業,其他運輸工具及其零件製造業|22.7563569|120.2622538
介鴻貿易有限公司九曲廠|高雄市大樹區九曲里九曲路２０２之３１號|金屬製品製造業|22.6497573|120.4218439
仕樺鑄造廠股份有限公司|高雄市岡山區竹圍里新庄路７０號|基本金屬製造業,機械設備製造業|22.8056069|120.3048689
仕益實業股份有限公司|高雄市大社區中山路677-6號|汽車及其零件製造業,其他運輸工具及其零件製造業|22.73032|120.3611597
仕禮企業有限公司|高雄市鳥松區中正路東豐巷51號|其他運輸工具及其零件製造業|22.649159|120.3725398
仕翔工程工業有限公司|高雄市阿蓮區玉庫里６０－６８號|金屬製品製造業|22.8405766|120.3064177
仕聖工業有限公司|高雄市永安區維新里維新路光明一巷20號|機械設備製造業|22.8081033|120.2511136
仙林鎮食品有限公司|高雄市仁武區工業二路17巷68弄1號|食品製造業|22.7002102|120.3427804
仙資堂生技股份有限公司二廠|高雄市仁武區高楠公路96號|食品製造業|22.7030145|120.3239111
仙資堂生技股份有限公司|高雄市仁武區高楠公路９６－８號|化學製品製造業|22.7030145|120.3239111
仟畝企業有限公司|高雄市大寮區琉球里農場路２１９號|塑膠製品製造業|22.6169673|120.4303066
仟詠企業股份有限公司|高雄市大寮區過溪里華一街６４２號|金屬製品製造業,機械設備製造業|22.5750665|120.4114042
代岱企業有限公司大發廠|高雄市大寮區過溪里光華路５之１號|化學材料製造業|22.5824641|120.4314531
以勤科技股份有限公司|高雄市左營區大順一路91號6樓之4|電腦、電子產品及光學製品製造業|22.6558055|120.3113851
以斯帖材料科技有限公司|高雄市前鎮區仁愛里新展路８號１樓|化學製品製造業,其他製造業|22.578679|120.316758
以晟聯合實業有限公司|高雄市大寮區大寮里華東路５０號|食品製造業|22.585023|120.4332692
仲合膠業有限公司|高雄市仁武區竹後里鳳仁路２８７之１７號|橡膠製品製造業|22.7045884|120.342304
仲悅科技有限公司大順廠|高雄市左營區新上里大順一路９１號１３樓之１、２、６|電力設備製造業|22.6558055|120.3113851
仲暘企業有限公司|高雄市岡山區本工東二路26號|食品製造業|22.8086509|120.2721127
仲翹實業股份有限公司二廠|高雄市仁武區烏林里仁心路318號|金屬製品製造業|22.6925511|120.3706425
仲興企業有限公司|高雄市前鎮區新都路２７號|基本金屬製造業|22.580219|120.313978
仲陽工業股份有限公司岡山廠|高雄市岡山區岡山路610巷22號|金屬製品製造業|22.8047693|120.2925184
仲陽工業股份有限公司|高雄市岡山區岡山里嘉新西路３０巷２４、２６號|金屬製品製造業|22.804652|120.293246
仲鵬企業股份有限公司|高雄市大寮區三隆里鳳林二路９０８巷６０號|成衣及服飾品製造業|22.5880329|120.4058828
仲麟實業有限公司|高雄市大寮區義和里鳳屏二路３７７之２號|食品製造業|22.6432608|120.4226483
任敏企業有限公司|高雄市鳳山區鎮北里鎮北北巷２１之２２號|機械設備製造業|22.6440111|120.3719698
任芳食品有限公司|高雄市三民區保生街３５號|食品製造業|22.653933|120.317194
企揚實業有限公司|高雄市仁武區竹工二巷12號3樓|汽車及其零件製造業|22.7079527|120.331291
企越股份有限公司|高雄市岡山區前峰路171巷150號|塑膠製品製造業,汽車及其零件製造業|22.8007|120.278488
伊弘實業股份有限公司大寮廠|高雄市大寮區裕民街３９號|橡膠製品製造業,家具製造業|22.5897495|120.4353826
伊曼企業有限公司|高雄市大寮區會社里鳳林三路２１５號|化學製品製造業|22.5993911|120.4000046
伊比加油站|高雄市那瑪夏區大光巷188號|加油站|23.2737969|120.7192533
伊迪行製衣興業有限公司|高雄市岡山區壽天里壽華路１４６號壹樓|成衣及服飾品製造業|22.8006497|120.2918022
伍一動力開發有限公司|高雄市鳳山區鳳仁路86之6號|其他運輸工具及其零件製造業|22.6855526|120.3538704
伍一精密開發股份有限公司|高雄市鳥松區美山路19巷1-2號|其他運輸工具及其零件製造業|22.6503655|120.3728645
伍桐股份有限公司|高雄市小港區鳳鳴里中利街２號、６號|化學材料製造業|22.5219253|120.3648345
伍盛工業股份有限公司|高雄市小港區龍鳳里興業街４２號|紙漿、紙及紙製品製造業|22.526968|120.3635961
伍經企業股份有限公司大發廠|高雄市大寮區過溪里鳳林二路２７０號|金屬製品製造業|22.5681589|120.4118696
伍通企業有限公司大寮廠|高雄市大寮區潮寮里華西路２３號|非金屬礦物製品製造業|22.5769312|120.4227561
伍通企業有限公司|高雄市鳳山區忠義里中山西路２１０號|非金屬礦物製品製造業|22.627865|120.349606
伍錦企業股份有限公司|高雄市大寮區田單三街１３號|基本金屬製造業|22.5750367|120.4305685
伯享生技股份有限公司岡山廠|高雄市岡山區岡燕路501號|食品製造業|22.7908963|120.3103857
伯居企業有限公司|高雄市大樹區竹寮里竹寮路３２７號|機械設備製造業|22.663323|120.4212386
伯東工業有限公司|高雄市仁武區竹後里鳳仁路２９９之６號|塑膠製品製造業|22.7086077|120.340421
伯獅精工股份有限公司|高雄市岡山區嘉為街200號|金屬製品製造業|22.8184704|120.3022005
伯耕實業股份有限公司新大廠|高雄市前鎮區新大路1號|橡膠製品製造業|22.5802852|120.3161809
伯耕實業股份有限公司|高雄市前鎮區新生路２１２號|橡膠製品製造業|22.5801898|120.3131835
伯鑫工業有限公司高雄廠|高雄市湖內區太爺里中山路２段２巷５３弄１６號|金屬製品製造業|22.9015275|120.2350946
伸和興業有限公司|高雄市岡山區為隨里為隨西路93號|塑膠製品製造業|22.8178541|120.2877666
伸展橡膠有限公司二廠|高雄市大社區保社里民族路28之1號|橡膠製品製造業|22.7468391|120.3581727
伸展橡膠有限公司|高雄市大社區保社里民族路１６號|橡膠製品製造業|22.7485184|120.3534568
伸昌鋼鐵工業股份有限公司大發廠|高雄市大寮區大寮里興業路19號|金屬製品製造業|22.5904037|120.4287405
伸正實業有限公司高雄廠|高雄市林園區中門里中門路３３９巷２６弄５號|機械設備製造業,汽車及其零件製造業,其他運輸工具及其零件製造業|22.5082369|120.3646323
伸禾實業有限公司|高雄市路竹區下坑里太平路262巷86-28號|金屬製品製造業|22.8587907|120.2918476
伸豐香料有限公司|高雄市大寮區內坑里內坑路158之12號|其他製造業|22.5891366|120.3841915
伸進企業有限公司|高雄市鳳山區鎮北里鳳仁路１００之９８號|機械設備製造業|22.638779|120.37483
伸長彩色印刷股份有限公司|高雄市仁武區竹後里竹楠路15、17號|印刷及資料儲存媒體複製業|22.7102502|120.3346836
佃林企業有限公司|高雄市旗山區南勝里旗南三路１８０之１號|非金屬礦物製品製造業|22.7893857|120.4559244
住友水產股份有限公司|高雄市前鎮區信義里新衙路296巷81弄18號|食品製造業|22.5824762|120.3125047
佐京工業有限公司|高雄市鳳山區鎮北里鳳仁路１００之４８號|金屬製品製造業|22.64008|120.373805
佐元新技有限公司|高雄市仁武區竹後里鳳仁路287-45號|機械設備製造業|22.7045884|120.342304
佐善工業有限公司|高雄市岡山區嘉興里嘉華路80巷91號|金屬製品製造業|22.8234657|120.3127269
佐慶生物科技有限公司|高雄市湖內區中山路二段2巷53弄8號|食品製造業|22.9012385|120.2354145
佐禾實業有限公司|高雄市大社區中正路339號1樓|化學製品製造業,非金屬礦物製品製造業|22.7440012|120.3496173
佐茂股份有限公司A5廠|高雄市前鎮區擴建路1之17號5樓|電力設備製造業|22.5903|120.302675
佐茂股份有限公司A6廠|高雄市前鎮區擴建路1之25號6樓|電力設備製造業|22.590111|120.302849
佐茂股份有限公司A7廠|高雄市前鎮區鎮北里擴建路１之１６、１之１７、１之１８號７樓|電子零組件製造業|22.5903|120.302675
佐茂股份有限公司B10廠|高雄市前鎮區擴建路1之26、27、28號10樓|電力設備製造業|22.589841|120.302955
佐茂股份有限公司B11廠|高雄市前鎮區擴建路1之28、1之29、1之30號11樓|電力設備製造業|22.589787|120.302778
佐茂股份有限公司|高雄市前鎮區鎮北里擴建路１之２１、１之２２、１之２３號５樓|電力設備製造業|22.590022|120.302495
佐邦五金企業有限公司|高雄市岡山區為隨里為隨西路69巷1號|金屬製品製造業|22.8155273|120.2893278
佑吉電機企業股份有限公司|高雄市大社區保社里中正路３１５巷２號|金屬製品製造業,電力設備製造業|22.7425584|120.3488524
佑夫實業有限公司|高雄市彌陀區公園路１６、２０號|塑膠製品製造業|22.7973834|120.2921254
佑學工業股份有限公司|高雄市岡山區壽峰里前峰路270、272、276、278號|金屬製品製造業|22.801704|120.280856
佑廣晟國際有限公司|高雄市岡山區為隨里為隨西路６７巷６號|食品製造業|22.8151443|120.2891609
佑得精密工業股份有限公司|高雄市鳳山區北門里鳳仁路２０２號|電子零組件製造業,電腦、電子產品及光學製品製造業,汽車及其零件製造業|22.6372149|120.3725186
佑春企業股份有限公司二廠|高雄市路竹區三爺里復興路９２２號|金屬製品製造業|22.8349298|120.2847039
佑春企業股份有限公司|高雄市岡山區本洲路55之46號|金屬製品製造業|22.805295|120.277355
佑晏企業股份有限公司|高雄市大寮區潮寮里田單三街２５號|基本金屬製造業|22.575041|120.4289319
佑生實業有限公司|高雄市仁武區工業二路17巷83號|石油及煤製品製造業|22.6987996|120.3409385
佑穎企業有限公司|高雄市永安區保寧里保寧路５之１號|機械設備製造業|22.8366104|120.2362232
佑第有限公司|高雄市大樹區九曲里九大路河濱２巷４０號|機械設備製造業,汽車及其零件製造業,其他運輸工具及其零件製造業|22.6522095|120.425294
佑義模具工業股份有限公司|高雄市路竹區社南里復興路１巷３２弄５、７號|金屬製品製造業,機械設備製造業|22.8528768|120.2701574
佑螢股份有限公司高雄廠|高雄市大樹區和山里和山路４６９號|紙漿、紙及紙製品製造業|22.7016999|120.4041304
佑誠企業有限公司|高雄市岡山區大埔一街39巷58弄3號|金屬製品製造業|22.8235214|120.3240834
佑誠木器行|高雄市彌陀區產業路38-15號|木竹製品製造業|22.7893689|120.2429267
何鑫實業股份有限公司鳳屏廠|高雄市大寮區義和里鳳屏二路３７５號|機械設備製造業|22.6432608|120.4226483
余昌企業有限公司|高雄市前鎮區擴建路１之３２號５樓|金屬製品製造業,機械設備製造業|22.589517|120.302793
佛光山加油站|高雄市大樹區興田路116之20號|加油站|22.7502461|120.4486872
佛光科技有限公司|高雄市岡山區育才路50號|電力設備製造業|22.8082661|120.2799805
佰霖有限公司燕巢廠|高雄市燕巢區瓊林路1001-2號|塑膠製品製造業|22.7977784|120.3249851
佰霖有限公司|高雄市岡山區岡山北路200號|家具製造業|22.8156035|120.2762243
佳中企業股份有限公司|高雄市湖內區田尾里中山路一段848巷18弄5號|金屬製品製造業|22.8962855|120.2410168
佳亮企業有限公司燕巢廠|高雄市燕巢區角宿里四林路１２１巷１８弄６號|電力設備製造業,機械設備製造業,其他運輸工具及其零件製造業|22.7769694|120.3476884
佳侑製衣有限公司|高雄市三民區民孝路６８號|成衣及服飾品製造業|22.6407573|120.3387996
佳力昌工業有限公司二廠|高雄市鳥松區中正路東豐巷３９號|金屬製品製造業|22.6491771|120.3725928
佳力昌工業有限公司|高雄市鳳山區鳳仁路９２之２６號|金屬製品製造業,機械設備製造業|22.636308|120.370075
佳埼工程有限公司路竹廠|高雄市路竹區大仁路719號|基本金屬製造業|22.8716048|120.2613242
佳大世界股份有限公司林園廠|高雄市林園區溪州一路２２３巷８５號|基本金屬製造業|22.5159014|120.4053658
佳大冷凍食品有限公司|高雄市鳳山區鎮北里鎮北北巷21之31號|食品製造業|22.6436874|120.3714635
佳安鋼鐵有限公司|高雄市岡山區大莊里大莊路60巷99號101號|金屬製品製造業|22.8080213|120.3254909
佳宏昕有限公司|高雄市岡山區大埔二街39巷5號|金屬製品製造業|22.8171259|120.3183348
佳定螺絲有限公司|高雄市梓官區同安里同安路民生巷358號|金屬製品製造業|22.7509127|120.2698162
佳展塑膠興業股份有限公司岡山廠|高雄市岡山區本洲里本洲路９１巷９號|塑膠製品製造業|22.8067476|120.2649466
佳峰印刷廠|高雄市前鎮區公正路１６１號|印刷及資料儲存媒體複製業|22.6057444|120.3306603
佳川精密工業有限公司|高雄市橋頭區中崎里中崎路３５之１號|金屬製品製造業|22.7623001|120.3200475
佳廣國際貿易有限公司|高雄市鳳山區文龍東路31號|食品製造業|22.6399013|120.3742641
佳慈企業有限公司|高雄市鳳山區鎮北里鳳仁路１００之１５號|機械設備製造業|22.638957|120.373724
佳慧工業有限公司水寮廠|高雄市大樹區水寮里中華路１３０、１３２號|金屬製品製造業|22.6655538|120.4062155
佳慶展企業有限公司|高雄市大樹區九曲里瓦厝街３巷５８號|機械設備製造業|22.6442443|120.4163402
佳昇資源科技股份有限公司|高雄市大寮區潮寮里田單五街２３號|化學材料製造業|22.5731106|120.4294928
佳昊實業有限公司|高雄市大社區保社里萬金路７之９號|食品製造業|22.7476147|120.3447324
佳明蘭園有限公司|高雄市前鎮區擴建路１之２９號６樓|化學材料製造業|22.589758|120.302702
佳晟環保科技有限公司|高雄市燕巢區角宿里寶頂巷32號|石油及煤製品製造業,化學製品製造業|22.7737979|120.3199602
佳暉工業社|高雄市阿蓮區港後里港後巷１３４－２２號|橡膠製品製造業|22.8724052|120.315586
佳楹工業有限公司|高雄市三民區十全二路３３１之１號|金屬製品製造業|22.64597|120.293797
佳沿企業有限公司|高雄市大寮區永芳里萬丹路331巷1號|機械設備製造業|22.6131339|120.4001254
佳源農產食油股份有限公司|高雄市大寮區江山里江山路75號|食品製造業|22.6352522|120.4083513
佳琪食品股份有限公司鳥松廠|高雄市鳥松區仁美里美庄路１０號１樓|食品製造業|22.6438677|120.3911295
佳璟機械有限公司|高雄市鳳山區北門里鳳仁路２４２巷６號|機械設備製造業|22.633038|120.362048
佳生工程企業有限公司高雄廠|高雄市鳳山區鎮北里鳳仁路１００之４３號|電腦、電子產品及光學製品製造業,電力設備製造業,機械設備製造業|22.6385082|120.374213
佳益工業有限公司仁武廠|高雄市仁武區鳳仁路105號|機械設備製造業|22.6909337|120.3504583
佳益工業有限公司|高雄市鼓山區大順一路１２５號|機械設備製造業|22.656619|120.305925
佳穩捲門材料行|高雄市大寮區光明路二段468號|金屬製品製造業|22.5966574|120.4187287
佳立工程行|高雄市岡山區嘉興里嘉華路80巷110號|金屬製品製造業|22.821423|120.3091089
佳美塑膠有限公司|高雄市大寮區鳳林二路２９３之３４號|塑膠製品製造業|22.5765645|120.4090676
佳美義肢輔具有限公司|高雄市三民區灣興里自由一路２３３號|其他製造業|22.65274|120.308507
佳美貿易股份有限公司高雄分公司|高雄市仁武區竹後里鳳仁路２９３號|塑膠製品製造業|22.703239|120.3437133
佳翁照明設備有限公司|高雄市大寮區後庄里民貴街62號|電力設備製造業|22.6324339|120.3845024
佳聖企業社|高雄市阿蓮區中路1-30號|機械設備製造業,汽車及其零件製造業,其他運輸工具及其零件製造業|22.8804778|120.3235127
佳興印刷局企業有限公司|高雄市前鎮區一心一路１７２號|印刷及資料儲存媒體複製業|22.60689|120.3210153
佳興實業股份有限公司|高雄市路竹區後鄉里順安路３６１號|食品製造業|22.8350913|120.2418318
佳豐鋁業股份有限公司|高雄市湖內區太爺里中山路二段２巷１５號|基本金屬製造業|22.9014838|120.2351221
佳進實業股份有限公司|高雄市大寮區琉球里農場路１８２號|基本金屬製造業,金屬製品製造業|22.6177258|120.4290379
佳野企業有限公司|高雄市大寮區大寮里大仁街12號|金屬製品製造業,電子零組件製造業|22.5928932|120.4159945
佳順興實業有限公司|高雄市大寮區大寮里裕民街１３號|金屬製品製造業|22.5857975|120.4354402
佳飾美國際事業有限公司|高雄市燕巢區角宿里角宿路６０２號|金屬製品製造業|22.7701997|120.3552026
佳麗寶化工股份有限公司高雄分廠|高雄市三民區遼寧二街２８９號|化學製品製造業|22.6432259|120.2940289
佳麗寶化工股份有限公司|高雄市大社區保社里旗楠路１０１號|化學製品製造業|22.7482049|120.3472638
佶億工廠股份有限公司|高雄市路竹區三爺里復興路１１３３巷６０號|金屬製品製造業|22.835218|120.2874349
佶沛貿易有限公司高雄廠|高雄市湖內區太爺里中山路二段二巷１７弄２號|化學製品製造業|22.9010072|120.2355903
佶鼎科技股份有限公司高雄分公司|高雄市小港區龍鳳里大業南路25之1號|基本金屬製造業|22.527348|120.365215
佾強科技股份有限公司|高雄市前鎮區鎮北里新生路９巷４５號|電子零組件製造業,機械設備製造業|22.5873217|120.3045196
來儀企業社|高雄市岡山區大莊里大莊路57號|金屬製品製造業|22.8075534|120.3251438
來克車業有限公司岡山廠|高雄市岡山區為隨里為隨東路６６巷２２、２６號|其他運輸工具及其零件製造業|22.8197621|120.2907574
來冠工業有限公司|高雄市林園區潭頭里工業二路250巷74號|非金屬礦物製品製造業|22.523247|120.4080248
來得生物科技有限公司|高雄市鳳山區文龍東路57巷1弄31號|食品製造業|22.6399013|120.3742641
來德鐵材行|高雄市仁武區文武里鳳仁路138號|金屬製品製造業|22.6949618|120.3486905
來昶企業社|高雄市岡山區嘉峰路2巷12號|金屬製品製造業|22.8255731|120.3095425
來樂食品有限公司高雄廠|高雄市大樹區瓦厝街6之157號|食品製造業|22.6452111|120.4178486
侑城股份有限公司|高雄市阿蓮區中路里中路７４－１５號|金屬製品製造業|22.8885174|120.2949304
侑尚企業社|高雄市鳥松區仁美里美山路19巷3號|金屬製品製造業|22.6423319|120.3784401
侑展精密企業有限公司|高雄市大樹區龍目里龍目路１５６之１５號|金屬製品製造業,機械設備製造業|22.6853493|120.4131081
侑德企業股份有限公司|高雄市大寮區潮寮里華東路３０號|基本金屬製造業|22.5801592|120.4331606
侑承有限公司|高雄市大樹區九曲里九大路３９２號|金屬製品製造業,電子零組件製造業|22.6519653|120.4250936
侑春企業有限公司|高雄市前鎮區新生路５巷１６號|塑膠製品製造業|22.5879866|120.3050047
侑特科技股份有限公司總廠|高雄市燕巢區安招里安招路599號|塑膠製品製造業,電子零組件製造業|22.7893328|120.3317111
侑群科技有限公司|高雄市鳳山區鳳仁路86之28號|電子零組件製造業|22.6390321|120.3756299
侑耕企業社|高雄市阿蓮區港後里崙頂70之21號|金屬製品製造業|22.8806219|120.3128588
侑興工業有限公司|高雄市阿蓮區港後里港後134之9號|金屬製品製造業|22.8720661|120.3166694
侑鋼興業有限公司|高雄市岡山區台上里嘉新東路１１８之１號|金屬製品製造業|22.807735|120.300967
依技實業股份有限公司|高雄市大寮區大寮里光華路１６之４號|家具製造業|22.5828059|120.4314322
俊凱機器廠|高雄市三民區通化街８８巷１０號|金屬製品製造業,電腦、電子產品及光學製品製造業,機械設備製造業|22.642857|120.293185
俊吉企業社|高雄市阿蓮區港後里港後１９０－１８號|金屬製品製造業|22.8723129|120.3115603
俊城冷凍機械股份有限公司|高雄市大社區保社里民族路１３之２號|機械設備製造業|22.7485966|120.3539401
俊宇興業有限公司|高雄市燕巢區安招里成大街６號|金屬製品製造業|22.788681|120.334367
俊泓企業有限公司|高雄市彌陀區南寮里新庄路大管巷200-1號|金屬製品製造業|22.7588703|120.2444365
俊皇企業社|高雄市岡山區華崗里大埔一街25號|金屬製品製造業|22.8224928|120.3235202
俊盈股份有限公司岡山廠|高雄市岡山區竹圍里新庄路９４號|金屬製品製造業|22.8062094|120.3055878
俊盈股份有限公司|高雄市彌陀區文安里文安北路2號1樓|金屬製品製造業|22.7942953|120.2395703
俊良貿易股份有限公司岡山廠|高雄市岡山區竹圍里嘉新東路７之１號|金屬製品製造業|22.807029|120.305345
俊良貿易股份有限公司|高雄市彌陀區文安里文安路東段１９８號|金屬製品製造業|22.7943639|120.2399953
俊良貿易股份有限公司高雄廠|高雄市彌陀區文安里文安北路２之１號|金屬製品製造業|22.7942953|120.2395703
俊鼎機械廠股份有限公司|高雄市大社區三奶里興工路５號|機械設備製造業|22.7173419|120.3432594
俐準企業股份有限公司|高雄市鳳山區輜汽路１７號|電子零組件製造業,電腦、電子產品及光學製品製造業,汽車及其零件製造業,其他運輸工具及其零件製造業|22.6162066|120.3344829
保來加油站|高雄市六龜區寶建路4號|加油站|23.0975728|120.6827474
保全企業行|高雄市梓官區智蚵里中正二街66之1號|金屬製品製造業|22.72745|120.2594775
保利順工業股份有限公司|高雄市大社區保社里保舍甲路５１號２、3樓|金屬製品製造業,機械設備製造業|22.7443529|120.3480826
保德實業有限公司|高雄市鳳山區鎮北北巷21-33號|金屬製品製造業|22.6438595|120.3717888
保盛紀念農禽肉品場|湖內區忠孝街113巷17號之1|屠宰場|22.8921366|120.2353736
保祥工業有限公司|高雄市前鎮區擴建路１之２７號１１樓|橡膠製品製造業,塑膠製品製造業,非金屬礦物製品製造業,機械設備製造業|22.589812|120.302856
保誠企業行|高雄市大寮區過溪里濃公路２５６巷７５號|機械設備製造業,汽車及其零件製造業,其他運輸工具及其零件製造業|22.5726927|120.4161591
保證責任高雄市養鹿生產合作社|高雄市湖內區大湖里中山路一段３３１號|食品製造業|22.8822656|120.2485746
保貴機械股份有限公司仁武一廠|高雄市仁武區後安里永宏巷１２弄４２號|機械設備製造業|22.7136279|120.3414694
保貴機械股份有限公司仁武二廠|高雄市仁武區後安里永宏巷12弄45號|機械設備製造業|22.7137594|120.3414895
俞和有限公司|高雄市燕巢區安招里安林三街３號|機械設備製造業,汽車及其零件製造業,其他運輸工具及其零件製造業,其他製造業|22.7871665|120.3298458
俞鑫企業有限公司二廠|高雄市岡山區大埔二街69巷12號|金屬製品製造業|22.8192497|120.3191588
俞鑫企業有限公司|高雄市岡山區育才路５２號|金屬製品製造業|22.8082044|120.2799363
信上立實業有限公司岡山廠|高雄市岡山區台上里成功路４６０巷６號|機械設備製造業|22.8110104|120.3005234
信亨企業有限公司|高雄市大社區保社里旗楠路99之19號|金屬製品製造業,家具製造業|22.7493783|120.3455338
信億企業社|高雄市路竹區中山路２巷６３號|塑膠製品製造業|22.8610705|120.2570984
信元鋁業股份有限公司貳廠|高雄市永安區維新里永工二路２３號|化學製品製造業,基本金屬製造業,金屬製品製造業|22.8168297|120.2521759
信元鋁業股份有限公司|高雄市永安區維新里永工五路３號|基本金屬製造業,金屬製品製造業|22.8091469|120.2543948
信全昌精密工業有限公司高雄廠|高雄市燕巢區安招里安林三街７號|機械設備製造業|22.7871688|120.3299901
信原木業有限公司|高雄市大寮區溪寮路78-63號|木竹製品製造業|22.6293913|120.418649
信原電機有限公司|高雄市楠梓區高楠公路885號|電力設備製造業|22.7098681|120.3252459
信吉企業有限公司|高雄市仁武區仁武里鳳仁路２６３號|金屬製品製造業|22.7001793|120.3456545
信和股份有限公司高雄廠|高雄市梓官區同安里大舍東路300巷26號|食品製造業|22.7504005|120.2635968
信大寢具有限公司|高雄市大寮區過溪里華一街５０１號|紡織業|22.5759362|120.4111358
信宗齒輪工業股份有限公司|高雄市三民區通化街１３２號|機械設備製造業,汽車及其零件製造業|22.645191|120.293394
信屹企業有限公司|高雄市仁武區考潭里仁心路199巷77弄21之1號|金屬製品製造業|22.6881239|120.3626329
信帝金屬有限公司|高雄市茄萣區萬福里福德路９１號|金屬製品製造業|22.9147426|120.182169
信彰企業行|高雄市楠梓區東寧里玉田街８１號１樓|金屬製品製造業,機械設備製造業|22.73095|120.330732
信愛實業股份有限公司一廠|高雄市左營區菜公里民族一路９５２號１、３、４樓|塑膠製品製造業|22.6765554|120.3187787
信成模具有限公司一廠|高雄市路竹區三爺里復興路1228號|金屬製品製造業|22.8295867|120.2876021
信成模具有限公司|高雄市路竹區三爺里復興路1228號|金屬製品製造業|22.8295867|120.2876021
信成米粉工廠|高雄市鳥松區大竹里大竹路２２號|食品製造業|22.6661432|120.3918907
信成製冰廠|高雄市楠梓區廣昌里右昌１巷１９３號|食品製造業|22.7085931|120.286675
信揮企業有限公司|高雄市林園區西溪里西溪路１９３巷５之２６號|金屬製品製造業,機械設備製造業|22.4928962|120.3900542
信旭企業股份有限公司燕巢廠|高雄市燕巢區角宿里四林路１３２號|金屬製品製造業|22.7770454|120.3461103
信昌化學工業股份有限公司林園廠|高雄市林園區工業三路９號|化學材料製造業|22.4970871|120.4151066
信昌製網工業有限公司|高雄市鳥松區仁美里美山路１９巷１９弄２２號|金屬製品製造業|22.6433425|120.3754522
信映企業股份有限公司|高雄市仁武區竹後里竹工一巷３號|塑膠製品製造業,機械設備製造業|22.7079923|120.3308307
信春股份有限公司岡山廠|高雄市燕巢區安招里安招路４５３號|基本金屬製造業|22.7911735|120.3422369
信有企業股份有限公司|高雄市岡山區後紅里三民路１２號|電力設備製造業,機械設備製造業,其他製造業|22.791735|120.298344
信東造船廠股份有限公司|高雄市旗津區北汕里高雄市旗津區中洲三路１０８巷９６號|其他運輸工具及其零件製造業|22.605893|120.288531
信榮工業原料有限公司|高雄市左營區菜公里大中二路39號|食品製造業|22.678612|120.317881
信泓合板有限公司|高雄市大寮區上寮路4之55號|木竹製品製造業|22.601629|120.4244205
信溢製冰冷凍股份有限公司|高雄市茄萣區大發路１０５號、濱海路一段１４２號|食品製造業|22.8630649|120.1945509
信潔工業股份有限公司仁武二廠|高雄市仁武區水管路81號|機械設備製造業,其他運輸工具及其零件製造業|22.7044714|120.3558263
信潔工業股份有限公司仁武廠|高雄市仁武區竹後里竹東路９０號|機械設備製造業,汽車及其零件製造業,其他運輸工具及其零件製造業|22.7059767|120.3394311
信瀧企業有限公司|高雄市岡山區為隨里為隨東路68之5號|金屬製品製造業|22.8205457|120.2899087
信炫高週波熱處理有限公司|高雄市仁武區後安里興昌巷８之２號|金屬製品製造業|22.7120561|120.339784
信發食品有限公司|高雄市鳳山區過雄一街117號|食品製造業|22.586535|120.355545
信盈活塞股份有限公司|高雄市岡山區本洲里本工路７號|汽車及其零件製造業|22.8080561|120.2671705
信盛企業有限公司|高雄市大寮區三隆里三隆路638巷20號|木竹製品製造業,家具製造業|22.6015929|120.4118097
信盛精工股份有限公司|高雄市岡山區潭底里潭底路３０１、３０３號|塑膠製品製造業,金屬製品製造業,電子零組件製造業,電腦、電子產品及光學製品製造業,其他製造業|22.8342731|120.3097081
信福塑膠企業社|高雄市大社區保社里中正路３３５號|塑膠製品製造業|22.7436748|120.349459
信竑企業有限公司|高雄市岡山區前鋒路286巷60號|金屬製品製造業|22.7949498|120.2887501
信美興業股份有限公司|高雄市燕巢區瓊林里安招路７９２號|基本金屬製造業,其他製造業|22.7888382|120.3241714
信義機械工程有限公司|高雄市鳳山區北門里鳳仁路２３０之６號|金屬製品製造業,其他運輸工具及其零件製造業|22.633038|120.362048
信義精密有限公司|高雄市路竹區竹西里聖母街80-1號|金屬製品製造業|22.8650898|120.2543238
信肯工業股份有限公司|高雄市大寮區大寮里華中路３３號|金屬製品製造業,電腦、電子產品及光學製品製造業,其他運輸工具及其零件製造業|22.5848084|120.4287388
信興機械工程股份有限公司|高雄市阿蓮區中路里中路77-12號|金屬製品製造業|22.8945149|120.2972141
信興精米工廠|高雄市梓官區智蚵里通安路２１４號|食品製造業|22.7300555|120.2514837
信菖工業股份有限公司|高雄市岡山區岡燕路４８５巷８５號|金屬製品製造業|22.7925748|120.2979992
信誠螺帽工廠二廠|高雄市岡山區華崗里嘉新東路二段111號|金屬製品製造業|22.8224422|120.328598
信誠螺帽工廠|高雄市岡山區華崗里二十四﹒子南街３３號|金屬製品製造業|22.8249601|120.320353
信越科技有限公司|高雄市大寮區後庄里民忠街６１號|電子零組件製造業|22.6411507|120.3853156
修附電機股份有限公司|高雄市岡山區本工路６６號|電腦、電子產品及光學製品製造業,機械設備製造業|22.8124852|120.2651844
俸成實業有限公司|高雄市三民區民族一路３３５巷３５號|塑膠製品製造業|22.654028|120.313739
倍飼特營養科技股份有限公司|高雄市岡山區大莊里大莊路７７號|食品製造業|22.8074854|120.3201089
倚揚工業有限公司|高雄市岡山區台上里成功路４６６巷１５號|金屬製品製造業,機械設備製造業|22.8127298|120.3016544
倡盟工業股份有限公司|高雄市仁武區竹後里竹工二巷２號|基本金屬製造業,金屬製品製造業,機械設備製造業|22.710453|120.332358
倫宏企業有限公司|高雄市燕巢區安招里安林路8號|金屬製品製造業|22.7874599|120.3293157
倫飛電腦實業股份有限公司大發二廠|高雄市大寮區過溪里華西路３３號|電腦、電子產品及光學製品製造業|22.5797011|120.4227629
倫飛電腦實業股份有限公司|高雄市大寮區華西路３１號|電腦、電子產品及光學製品製造業|22.578848|120.4227614
偉允閥業股份有限公司高雄廠|高雄市仁武區竹後里鳳仁路２９３之２號|金屬製品製造業|22.7065019|120.3425972
偉同科技股份有限公司|高雄市大社區保社里旗楠路８０巷２２０之１０號|電子零組件製造業|22.7417336|120.3435848
偉城工程有限公司高雄廠|高雄市大寮區新厝里鳳林二路２９３之５２號|金屬製品製造業,機械設備製造業|22.5765645|120.4090676
偉宏興工業股份有限公司|高雄市梓官區赤崁里赤崁北路１４４號|基本金屬製造業|22.7419219|120.2458636
偉揚藝術有限公司|高雄市鼓山區大順一路123號|機械設備製造業|22.656641|120.305997
偉正橡膠企業有限公司|高雄市仁武區竹後里鳳仁路２９９之５號|橡膠製品製造業|22.7086077|120.340421
偉立五金企業股份有限公司二廠|高雄市岡山區台上里成功路４７０號|金屬製品製造業|22.8129581|120.301041
偉芳工業股份有限公司|高雄市路竹區竹西里建國路５８號|機械設備製造業|22.8601741|120.2578132
偉衡企業有限公司(重辦)|高雄市小港區祟明街１６４號|機械設備製造業|22.569311|120.3298239
偉記工程股份有限公司|高雄市梓官區大舍里八德路３１１號|金屬製品製造業,機械設備製造業,其他運輸工具及其零件製造業|22.7532609|120.2554613
偉雅勝企業有限公司|高雄市岡山區本洲里本洲路５５之１０號|木竹製品製造業,非金屬礦物製品製造業,金屬製品製造業|22.8049605|120.2773699
健丞飼料股份有限公司|高雄市湖內區中賢里中正路二段４８０巷３２號|食品製造業|22.9086072|120.2141586
健坤企業股份有限公司分廠|高雄市岡山區本洲里本洲路５５之２號|金屬製品製造業|22.8049605|120.2773699
健德膠業有限公司|高雄市路竹區民權路２９巷５號|橡膠製品製造業,塑膠製品製造業|22.8334153|120.2810354
健忠五金行|高雄市燕巢區安招里安林路１３號|金屬製品製造業,機械設備製造業|22.7876923|120.3294388
健成實業股份有限公司|高雄市橋頭區芋寮路南段１０號|食品製造業|22.758531|120.2891517
健晉實業股份有限公司|高雄市岡山區台上里成功路４６０巷２８號|機械設備製造業,汽車及其零件製造業,家具製造業|22.809726|120.301604
健益科技股份有限公司二廠|高雄市大寮區大寮里光華路２０號１、２樓|電子零組件製造業|22.5834035|120.4236052
健能企業有限公司大社廠|高雄市大社區保社里民族路１３之１２號|金屬製品製造業|22.7485966|120.3539401
健茂生物科技股份有限公司|高雄市前鎮區新生路248-14、16、18、21、23號2樓|飲料製造業|22.5758377|120.3166987
健詮億企業有限公司|高雄市仁武區鳳仁路３６９巷２８弄２２號|塑膠製品製造業|22.7149287|120.3343226
健豪印刷事業股份有限公司高雄廠|高雄市左營區菜公里民族一路６６３號|印刷及資料儲存媒體複製業|22.6703926|120.3170506
健鑫生醫科技股份有限公司|高雄市路竹區北嶺里路科二路69號3樓|化學製品製造業,其他製造業|22.828654|120.2589548
傑奎科技股份有限公司南科分公司|南科高雄園區高雄市路竹區路科二路65號3樓|其他製造業|22.8286823|120.2589894
傑曠工業股份有限公司|高雄市岡山區岡山里岡山路６１０巷２９號|金屬製品製造業|22.804136|120.291237
傑期企業股份有限公司大有廠|高雄市大寮區大寮里大有四街５號|金屬製品製造業|22.584798|120.4260373
傑期企業股份有限公司大發廠|高雄市大寮區潮寮里田單四街１２號|基本金屬製造業|22.5741197|120.431262
傑期企業股份有限公司華東廠|高雄市大寮區大寮里華東路３５之２號|金屬製品製造業|22.583308|120.4330199
傑永省力股份有限公司|高雄市三民區十全里安東街１１３號|機械設備製造業|22.64541|120.295379
傑盟科技工程股份有限公司|高雄市鳳山區鎮北里力行路２０５巷６號|電腦、電子產品及光學製品製造業,機械設備製造業,家具製造業|22.6391438|120.364961
傑聯工業有限公司|高雄市路竹區北嶺里民有路６２５巷６號|金屬製品製造業|22.8216599|120.2802165
傑臻企業有限公司|高雄市前鎮區新衙路288-9號5樓之2|食品製造業|22.58243|120.314459
傑邁醫學科技股份有限公司|高雄市前鎮區信義里新衙路２８６之２號４樓之１、４樓之２，２８６之４號６樓之１、６樓之２|電腦、電子產品及光學製品製造業|22.581683|120.314331
傢美木業股份有限公司|高雄市岡山區永樂街２巷４０號|木竹製品製造業|22.7953975|120.3064047
傳和機械實業有限公司二廠|高雄市仁武區仁武里工業二路１０號|機械設備製造業|22.6996345|120.3424041
傳和機械實業有限公司高雄廠|高雄市左營區大順一路９３號１１樓之２|機械設備製造業|22.6558283|120.3113433
傳展股份有限公司燕巢廠|高雄市燕巢區安招里安林二街６０號|機械設備製造業|22.7881271|120.3324222
傳盛自動化有限公司|高雄市燕巢區角宿里四林路１２１巷１８弄８號|機械設備製造業|22.7769694|120.3476884
傳能企業股份有限公司|高雄市路竹區三爺里民族路２５１巷５號|機械設備製造業|22.8314415|120.2772479
傳閔工程股份有限公司|高雄市岡山區本洲里本工五路１號|機械設備製造業|22.807119|120.2737001
僑澧股份有限公司|高雄市大寮區永芳里萬丹路407號|機械設備製造業|22.6136696|120.402359
僑茂機械廠股份有限公司|高雄市仁武區烏林里仁心路３０５號|金屬製品製造業,機械設備製造業|22.6912834|120.3694297
儀展科技有限公司|高雄市前鎮區新衙路２８６之２號５樓之２|電腦、電子產品及光學製品製造業|22.5820211|120.3161816
儀昌工廠股份有限公司二廠|高雄市岡山區華崗里大埔二街１３５巷６６號|金屬製品製造業|22.8230062|120.3187027
儀騰企業有限公司|高雄市大寮區大寮里利民街２６之１號|金屬製品製造業,機械設備製造業|22.5882462|120.4343755
儀鼎儀器股份有限公司|高雄市前鎮區信義里新衙路２８６之９號５樓之１|電腦、電子產品及光學製品製造業|22.582909|120.315088
億來股份有限公司燕巢廠|高雄市燕巢區安招里安林六街１７號|化學製品製造業|22.7876999|120.3332788
億利行印刷廠|高雄市三民區孝順街５３７巷１９號|印刷及資料儲存媒體複製業|22.649486|120.313778
億勝鋼鐵股份有限公司|高雄市三民區中華橫路３９號|金屬製品製造業|22.6403488|120.28965
億吉彈簧五金股份有限公司|高雄市仁武區鳳仁路72-1號1樓|金屬製品製造業|22.6827399|120.3548461
億尚科技股份有限公司|高雄市前鎮區高雄加工出口區南五路十號|金屬製品製造業,電子零組件製造業,電力設備製造業,機械設備製造業|22.592596|120.294023
億尚精密工業股份有限公司一廠|高雄市鳳山區鎮北里鎮北北巷２０之２０號|金屬製品製造業,機械設備製造業|22.6440873|120.3720604
億尚精密工業股份有限公司二廠|高雄市鳳山區鎮北里鎮北北巷２０之８、２０之１０號|金屬製品製造業,機械設備製造業|22.642102|120.3718003
億尚精密工業股份有限公司|高雄市鳳山區鎮北里鎮北北巷２０之１３號|金屬製品製造業,機械設備製造業|22.6440873|120.3720604
億居金屬工業股份有限公司|高雄市大寮區興業路３４、３７號|金屬製品製造業|22.5904037|120.4287405
億律國際印刷有限公司|高雄市三民區灣興里灣興街５５巷６號|印刷及資料儲存媒體複製業|22.651163|120.310988
億得企業有限公司|高雄市大寮區潮寮里田單六街５號|基本金屬製造業|22.5722152|120.4324966
億成螺絲有限公司|高雄市岡山區華岡路７號|金屬製品製造業|22.8250866|120.3279469
億成螺絲有限公司|高雄市岡山區華崗里拕子中街９４巷１５號|金屬製品製造業|22.826752|120.321161
億昇泓實業有限公司二廠|高雄市岡山區本洲里本工南一路５號|金屬製品製造業|22.8047138|120.2707954
億昇泓實業有限公司|高雄市岡山區本洲里本工南一路２號|金屬製品製造業|22.8047138|120.2707954
億昌鋼鐵廠股份有限公司|高雄市小港區山明里永光街2、2之3號|基本金屬製造業|22.552173|120.369055
億樹化粧合板有限公司|高雄市鳥松區中正路東豐巷17、19號|木竹製品製造業|22.6495449|120.3712026
億汎塑膠複合材料有限公司II廠|高雄市燕巢區四林路126-1號|塑膠製品製造業|22.7763813|120.3461662
億汎塑膠複合材料有限公司|高雄市燕巢區安招里安林路９號１樓|化學材料製造業|22.7874599|120.3293157
億泰鋼圈有限公司|高雄市三民區銀杉街２２號|汽車及其零件製造業,其他運輸工具及其零件製造業|22.655319|120.318349
億炬實業有限公司仁武廠|高雄市仁武區竹後里竹東路８８號|非金屬礦物製品製造業|22.7059767|120.3394311
億燃企業社|高雄市阿蓮區港後里港後路5-52號|金屬製品製造業|22.8724052|120.315586
億瑋誠精密工業股份有限公司|高雄市岡山區潭底里崑山東巷12弄46號|金屬製品製造業|22.8307937|120.310345
億瑞工業股份有限公司燕巢廠|高雄市燕巢區橫山里大仁路８３號|塑膠製品製造業,基本金屬製造業|22.7708778|120.3850297
億瑞工業股份有限公司高雄廠|高雄市仁武區烏林里仁心路２６２號|基本金屬製造業,電力設備製造業|22.689737|120.3679571
億祥儀器有限公司|高雄市大寮區中庄里自立路39號|其他製造業|22.6331859|120.3898839
億築企業股份有限公司|高雄市永安區維新里永工一路１６號|基本金屬製造業,金屬製品製造業,機械設備製造業|22.8161833|120.2543516
億統廣告企業有限公司|高雄市前鎮區臨水南路３２號|印刷及資料儲存媒體複製業|22.5872362|120.3049856
億裕通運股份有限公司|高雄市大樹區瓦厝街3巷86號|金屬製品製造業|22.6441116|120.4155884
億鑫機電有限公司|高雄市林園區半廍路45號|機械設備製造業|22.489504|120.3880525
億陞智生技股份有限公司|高雄市小港區高松里金鋁街２２號|食品製造業|22.5433186|120.3760314
億陽科技有限公司|高雄市前鎮區新衙路286之5號5樓之2|成衣及服飾品製造業|22.582587|120.315343
億騏機械工業有限公司|高雄市鳳山區鎮北里北平路１２３號|成衣及服飾品製造業|22.6371562|120.3671421
億鴻機械有限公司鳳山廠|高雄市鳳山區北門里鳳仁路２４２巷１２號|機械設備製造業|22.6381475|120.3750808
儒昌工業股份有限公司|高雄市岡山區灣裡里育才路７２巷３號|金屬製品製造業|22.8068044|120.2790499
優世麥自行車有限公司燕巢廠|高雄市燕巢區安招里安林四街７４號|其他運輸工具及其零件製造業|22.7872328|120.3331384
優佳松企業有限公司|高雄市三民區熱河二街３２５號|金屬製品製造業|22.6447408|120.2925724
優司亞環境科技股份有限公司|高雄市燕巢區安林三街20號|化學製品製造業|22.7871407|120.3305856
優品化學工業股份有限公司|高雄市大社區三奶里興工路３之１號|化學製品製造業|22.7240353|120.3410589
優嘉實業股份有限公司|高雄市大寮區過溪里莒光一街１９之１號|家具製造業|22.5799786|120.424502
優士達科研有限公司|高雄市前鎮區新衙路286之3號3樓之1|電子零組件製造業|22.582638|120.3154
優普洛科技股份有限公司|高雄市岡山區本洲里本工西二路８號|金屬製品製造業|22.8114868|120.2668966
優杰實業有限公司|高雄市燕巢區鳳雄里鳳東路３１２巷２１號|塑膠製品製造業|22.7583984|120.3592322
優盛油封實業有限公司|高雄市楠梓區楠梓加工出口區經六路57號|橡膠製品製造業|22.7203001|120.3010164
優矽實業有限公司|高雄市仁武區仁心路81巷37-1號|橡膠製品製造業|22.6844727|120.3599271
優磨企業有限公司|高雄市大寮區內坑里內坑路９之２２號|機械設備製造業|22.5811374|120.4057578
優紅企業有限公司|高雄市仁武區竹後里鳳仁路369巷23弄6號|金屬製品製造業|22.6721645|120.3606528
優能生技股份有限公司|高雄市燕巢區安招里安林路１４號|化學製品製造業|22.7874599|120.3293157
優順電機企業行|高雄市林園區海墘路４６巷１２弄２號|電力設備製造業|22.5068016|120.3649211
優鴻工業有限公司|高雄市三民區通化街76號1樓|金屬製品製造業|22.642797|120.292986
儷橙企業有限公司|高雄市岡山區為隨西路91號|食品製造業|22.811891|120.291067
儷瑋企業有限公司|高雄市鳳山區鎮北里鳳仁路１００之２９號|金屬製品製造業|22.6385082|120.374213
儷耀科技股份有限公司|高雄市前鎮區高雄加工出口區南五路3-1號|電子零組件製造業|22.5929676|120.2955213
允伸機械股份有限公司|高雄市大寮區大寮里大仁街２３號|機械設備製造業|22.5943411|120.4166725
允偉興業股份有限公司|高雄市大寮區過溪里華中路２８號|食品製造業|22.5823129|120.428756
允升工業股份有限公司|高雄市橋頭區芋寮里芋林路９７號|塑膠製品製造業,基本金屬製造業,機械設備製造業|22.7630427|120.2855251
允大螺絲工業股份有限公司|高雄市大社區保社里萬金路９號|金屬製品製造業|22.7478659|120.3442125
允懋精密股份有限公司|高雄市大樹區竹寮里竹寮路78之5號|金屬製品製造業,家具製造業|22.6665082|120.4262597
允振企業股份有限公司|高雄市仁武區竹後里竹門巷１０號|金屬製品製造業|22.7059771|120.3380498
允揚蔬果行|高雄市大樹區大樹里大樹路南巷22號1樓|食品製造業|22.6881901|120.4311948
允盛電機企業有限公司小港廠|高雄市小港區東林路１號|電力設備製造業|22.544174|120.375568
允眾企業有限公司|高雄市鳥松區仁美里美山路１９巷１弄１６號|金屬製品製造業,機械設備製造業|22.6417911|120.3765706
允祺企業有限公司燕巢廠|高雄市燕巢區安招里安林二路６５號|塑膠製品製造業,金屬製品製造業|22.788219|120.3328398
允興光電科技股份有限公司|高雄市楠梓區楠梓加工出口區新建南路2-3號|電子零組件製造業,電力設備製造業|22.722199|120.310976
允興食品廠|高雄市鳳山區鳳仁路９２之１２號|食品製造業|22.636308|120.370075
允良機械股份有限公司|高雄市梓官區茄典里嘉展路２０５號|金屬製品製造業|22.7347347|120.2533784
允超機電有限公司|高雄市林園區中門路３３９巷４０號|機械設備製造業|22.5077331|120.3658497
允通晟工業有限公司|高雄市岡山區嘉興里嘉華路１３５－８７號|金屬製品製造業|22.823338|120.3117288
允鑫五金工業股份有限公司本洲廠|高雄市岡山區本洲里本工三路３０號|金屬製品製造業|22.8102555|120.2735555
允鑫五金工業股份有限公司|高雄市岡山區本工六路９１號１樓|金屬製品製造業|22.8157868|120.2606139
允騁機械有限公司|高雄市大樹區竹寮里竹寮路３４４號|金屬製品製造業,機械設備製造業|22.663285|120.4216444
允騁科技有限公司|高雄市大樹區竹寮里竹寮路３４６號１樓|電子零組件製造業|22.663352|120.4217445
元一行|高雄市大寮區新厝里鳳林二路２９３之９號|機械設備製造業|22.5765645|120.4090676
元上工程有限公司|高雄市大寮區義和里鳳屏二路３７３之１號|金屬製品製造業,機械設備製造業|22.6432608|120.4226483
元井國際有限公司|高雄市鳥松區水管路11號1樓|印刷及資料儲存媒體複製業|22.6469556|120.3872983
元佳宇有限公司二廠|高雄市岡山區壽峰里前峰路２８６巷６號|化學材料製造業|22.7981362|120.2846178
元佳宇有限公司|高雄市岡山區壽峰里前鋒路２８６巷８號|化學材料製造業|22.7981499|120.2846191
元冠村食品有限公司|高雄市鳳山區建國路一段394之1號|食品製造業|22.634691|120.36882
元剩木料有限公司|高雄市左營區菜公里菜公一路３號|木竹製品製造業|22.675684|120.3178031
元升科技企業有限公司|高雄市大寮區萬丹路269號|電力設備製造業|22.6131905|120.3981911
元周企業有限公司|高雄市仁武區竹後里鳳仁路３６９巷７號|機械設備製造業|22.7035618|120.3425609
元山科技工業股份有限公司|高雄市仁武區竹後里鳳仁路３２９號|電子零組件製造業,電力設備製造業,機械設備製造業|22.7139049|120.3369467
元山鋼企業有限公司|高雄市岡山區石潭里光潭路16之6號|基本金屬製造業|22.775226|120.2752688
元弘丞企業有限公司|高雄市岡山區灣裡里岡山北路１９３巷３５、３７號|金屬製品製造業|22.810119|120.2780275
元成興精密股份有限公司|高雄市路竹區中山路257號|金屬製品製造業|22.8725698|120.2545319
元旭有限公司|高雄市仁武區工業二路17巷68弄18號|機械設備製造業|22.7000892|120.3432409
元旭興業股份有限公司|高雄市前鎮區漁港東三路１８巷６號|紡織業,金屬製品製造業|22.572031|120.3187523
元昌食品股份有限公司|高雄市燕巢區角宿里四林路１之３號|食品製造業|22.7726467|120.3462549
元春食品行|高雄市三民區春陽街155號|食品製造業|22.646985|120.332895
元晉機械有限公司|高雄市大寮區義和里鳳屏二路３７５之９號|機械設備製造業|22.6432608|120.4226483
元晟食品有限公司|高雄市前鎮區信義里千富街２４１巷７號|食品製造業|22.584149|120.3153647
元椿實業有限公司|高雄市大樹區九曲里瓦厝街１７１、１７５號|木竹製品製造業|22.6454957|120.4025533
元泰發實業有限公司臨廣加工區廠|高雄市前鎮區明孝里新生路248-18號3樓|電力設備製造業|22.5758377|120.3166987
元泰發實業有限公司高雄廠|高雄市前鎮區新生路248-28號3樓、248-30號3樓、248-32號3樓、248-41號3樓、248-43號3樓|電力設備製造業|22.5758377|120.3166987
元海鄉實業股份有限公司|高雄市前鎮區漁港北三路３２號|食品製造業|22.57485|120.313592
元溢汽車材料有限公司|高雄市鳳山區鎮北里北賢街60號2樓|汽車及其零件製造業|22.6405122|120.3701165
元燁股份有限公司|高雄市前鎮區新福路２１號|金屬製品製造業,機械設備製造業|22.5813263|120.3160925
元琪生化科技有限公司燕巢廠|高雄市燕巢區安招里安林一街13號|化學製品製造業|22.7877719|120.3332734
元生養生股份有限公司|高雄市岡山區岡山里岡山路６１０巷３０號|食品製造業|22.8051457|120.2927041
元發實業社|高雄市阿蓮區玉庫里玉庫1-18號|橡膠製品製造業|22.844339|120.305837
元皓能源股份有限公司臨廣加工區廠|高雄市前鎮區新生路248-26號4樓、248-32號4樓|電力設備製造業,其他製造業|22.5758377|120.3166987
元碩電子有限公司|高雄市鳳山區鎮北里鎮北北巷２３號|電子零組件製造業,電腦、電子產品及光學製品製造業|22.6440584|120.3719086
元禎企業股份有限公司高雄廠|高雄市岡山區本洲里本工路２５號|化學製品製造業|22.8087705|120.2696955
元穗木材行|高雄市路竹區國昌路１８９巷２８３號|木竹製品製造業|22.8558179|120.2537011
元筠企業有限公司|高雄市大寮區琉球里農場路１９８號|金屬製品製造業|22.6163107|120.4273441
元興企業社|高雄市湖內區大湖里民權路１５６巷２弄３號|機械設備製造業|22.8877187|120.2439292
元興塑膠企業社第二廠|高雄市仁武區竹後里竹工三巷２６號|塑膠製品製造業|22.7146059|120.3317624
元興塑膠企業社|高雄市仁武區竹後里竹工三巷２８號|塑膠製品製造業|22.7146507|120.3319148
元良企業社|高雄市鳳山區鎮北里鳳仁路１０２之２號|機械設備製造業|22.639063|120.375053
元通毛刷廠股份有限公司二廠|高雄市仁武區竹後里鳳仁路３６９巷４２號|塑膠製品製造業|22.7145717|120.3350022
元通毛刷廠股份有限公司|高雄市仁武區竹後里鳳仁路３６９巷２８弄１１號|塑膠製品製造業|22.7039461|120.3433128
元邦開發有限公司|高雄市仁武區竹後里鳳仁路３６９巷４５弄５號|機械設備製造業|22.6753334|120.3588139
元鐘加油站|高雄市岡山區為隨西路16號|加油站|22.8155308|120.2885299
元際股份有限公司|高雄市大社區三奶里興工路３號|化學材料製造業,化學製品製造業|22.7240056|120.3409683
元鴻發展股份有限公司二廠|高雄市岡山區嘉興里嘉興路１１８號|紙漿、紙及紙製品製造業|22.8183795|120.3023699
元鴻發展股份有限公司|高雄市岡山區嘉興里嘉興路４５２、６４１號|食品製造業,木竹製品製造業,紙漿、紙及紙製品製造業|22.8229469|120.3067168
兄弟春電線企業有限公司|高雄市鳳山區一甲里南華路一巷６弄１號１樓|電力設備製造業|22.598489|120.3401808
兄弟藥粉廠|高雄市鹽埕區壽星街２１號|藥品及醫用化學製品製造業|22.6300823|120.2822667
兆裕興業有限公司高雄廠|高雄市林園區中門里中門路３３９巷２６弄１１號|塑膠製品製造業|22.5082364|120.3646323
兆誠科技有限公司|高雄市鳳山區鳳仁路86之2號|金屬製品製造業|22.638963|120.374484
兆豐興塑膠有限公司|高雄市仁武區竹後里竹門巷１０１之６號|塑膠製品製造業|22.7085767|120.3339185
兆鋐實業股份有限公司|高雄市岡山區岡山里嘉新西路３０巷１７號|金屬製品製造業|22.804612|120.29342
兆鎮企業有限公司高雄廠|高雄市仁武區烏林里仁心路３２５號|金屬製品製造業,電子零組件製造業,機械設備製造業|22.6929909|120.3710677
先創有限公司|高雄市燕巢區安招里安招路５０３號|金屬製品製造業|22.7893328|120.3317111
先勝貿易有限公司|高雄市大寮區中庄里立德路１８１號|機械設備製造業|22.6293727|120.3851308
先勵有限公司|高雄市路竹區竹滬里華正路45巷81號|塑膠製品製造業|22.8581142|120.23828
先崎企業有限公司|高雄市大寮區潮寮里田單四街１５號|塑膠製品製造業,基本金屬製造業,金屬製品製造業|22.5741052|120.4295122
先機工業股份有限公司仁武廠|高雄市仁武區竹後里竹工一巷５號|金屬製品製造業,機械設備製造業|22.7076851|120.3317718
先機工業股份有限公司|高雄市仁武區竹後里竹楠路47號|金屬製品製造業,機械設備製造業|22.706214|120.3331427
先答實業有限公司仁武廠|高雄市仁武區後安里永宏巷１１之１號|塑膠製品製造業,金屬製品製造業|22.7139757|120.3413911
先豪科技有限公司二廠|高雄市岡山區為隨東路66巷29號|化學製品製造業|22.8172635|120.2894076
先豪科技有限公司|高雄市岡山區為隨里為隨東路６６巷２０號|其他製造業|22.8198197|120.2907012
先貿有限公司仁武廠|高雄市仁武區後安里永宏巷１２弄３３號|機械設備製造業|22.7137594|120.3414895
先進複材科技股份有限公司|高雄市小港區山明里永光街３號|塑膠製品製造業,其他運輸工具及其零件製造業|22.551739|120.3687434
先進電機工業有限公司仁武廠|高雄市仁武區鳳仁路３０７巷５０號|電力設備製造業|22.7144668|120.3348283
先陽企業有限公司岡山廠|高雄市燕巢區安招里安林二街５２、５４號|石油及煤製品製造業|22.7879916|120.332177
光佑國際有限公司|高雄市鳳山區鳳仁路100之11號|金屬製品製造業|22.638857|120.373824
光信企業有限公司|高雄市鳳山區鎮北里鳳仁路１００之７號|機械設備製造業|22.63875|120.373899
光倫興業有限公司梓官廠|高雄市梓官區赤崁北路３５０巷２３號|電力設備製造業|22.7455068|120.2475351
光利機械工業有限公司|高雄市三民區通化街５９號|機械設備製造業|22.6426265|120.292601
光勵企業股份有限公司|高雄市鳳山區鎮北里鳳仁路８８之３號|電力設備製造業,機械設備製造業|22.638858|120.372718
光南彈簧企業有限公司|高雄市新興區南港里八德一路２９９號|金屬製品製造業,機械設備製造業,汽車及其零件製造業|22.6356468|120.3056277
光南鋼鐵股份有限公司|高雄市路竹區後鄉里順安路２７５巷１７２、１７４號|基本金屬製造業,金屬製品製造業|22.84142|120.2427423
光和工程行|高雄市前鎮區鎮北里新生路５巷３４號|其他運輸工具及其零件製造業|22.5877828|120.3045066
光喬實業有限公司|高雄市前鎮區擴建路1之33號3樓|食品製造業|22.589541|120.302874
光圜生物科技實業有限公司|高雄市燕巢區安招里安林四街13號|化學製品製造業|22.7867972|120.3308284
光城貿易股份有限公司高雄廠|高雄市鳥松區美山路73號1、2F(B棟1F、A棟2F)|金屬製品製造業|22.6449386|120.3858482
光大應用材料科技股份有限公司|高雄市大寮區鳳林二路530號|金屬製品製造業|22.5758484|120.4094606
光宇醫療儀器股份有限公司高雄分公司|高雄市路竹區路科五路96號4樓|其他製造業|22.827307|120.257944
光安玻璃股份有限公司|高雄市大寮區大寮里光華路６之２號|非金屬礦物製品製造業|22.5831094|120.4343862
光寶科技股份有限公司楠梓加工出口區廠|高雄市楠梓區楠梓加工出口區中央路37、37-3號|電子零組件製造業,電腦、電子產品及光學製品製造業,汽車及其零件製造業,其他運輸工具及其零件製造業|22.7228908|120.303503
光峻企業有限公司二廠|高雄市仁武區竹後里竹工三巷３３之１１號|機械設備製造業|22.7133262|120.3320581
光志工廠二廠|高雄市岡山區華崗里大埔二街69巷38號|金屬製品製造業|22.8168795|120.3194554
光志工廠|高雄市岡山區嘉興里嘉華路２７號|金屬製品製造業|22.8238079|120.3159465
光明海產股份有限公司|高雄市前鎮區新都路２６號|食品製造業|22.579807|120.314813
光柘企業有限公司|高雄市岡山區岡山里岡山路610巷1弄12號|金屬製品製造業|22.8033524|120.2910877
光波奈米生物科技有限公司|高雄市鳳山區武慶里輜汽北一路１４號|印刷及資料儲存媒體複製業,化學材料製造業,電力設備製造業,機械設備製造業|22.6176582|120.3327339
光盛工業有限公司|高雄市路竹區中山路88巷18號|金屬製品製造業|22.8635211|120.2567201
光舜興業股份有限公司|高雄市仁武區烏林里烏林路６６之１號|非金屬礦物製品製造業|22.6965183|120.3745912
光華加油站|高雄市苓雅區三多二路330號|加油站|22.618222|120.316724
光華磚廠股份有限公司|高雄市鳳山區武松里建國路一段４２０號|非金屬礦物製品製造業|22.6350032|120.365103
光迅自動科技股份有限公司|高雄市燕巢區安招里安林四街３６號|機械設備製造業|22.7869093|120.3313313
光連企業有限公司|高雄市岡山區竹圍里新庄路１１之９號|塑膠製品製造業,基本金屬製造業|22.8066427|120.3041212
光遠機械股份有限公司|高雄市大寮區過溪里莒光一街１４號|金屬製品製造業,機械設備製造業|22.5807732|120.4257698
光量生技股份有限公司新衙廠|高雄市前鎮區新衙路286之1號6樓之2|化學製品製造業|22.5819686|120.3161097
光量生技股份有限公司|高雄市前鎮區新衙路286之1號6樓之1|食品製造業|22.5819686|120.3161097
光陽吉鐵工有限公司臨海廠|高雄市小港區興業街３１號|其他運輸工具及其零件製造業|22.5270507|120.3635015
光陽工業股份有限公司研發廠|高雄市三民區灣興里灣興街３５之１號|其他運輸工具及其零件製造業|22.651247|120.31277
光陽工業股份有限公司第二廠|高雄市三民區灣興里灣興街６１號|基本金屬製造業,金屬製品製造業,其他運輸工具及其零件製造業|22.651841|120.311326
光陽工業股份有限公司路竹廠|高雄市路竹區北嶺里中山南路６１號|汽車及其零件製造業,其他運輸工具及其零件製造業,其他製造業|22.8286466|120.2661311
光陽工業股份有限公司|高雄市三民區灣興里灣興街３５號|金屬製品製造業,機械設備製造業,汽車及其零件製造業,其他運輸工具及其零件製造業,其他製造業|22.651194|120.31285
光隆瀝青股份有限公司|高雄市仁武區烏林里仁林路２３２號|非金屬礦物製品製造業|22.6980679|120.3732747
光順縫紉加工有限公司|高雄市大寮區永芳里萬丹路279號|成衣及服飾品製造業|22.6132915|120.3981785
光顯企業股份有限公司|高雄市林園區潭頭里工業二路320巷115號|電力設備製造業|22.5274005|120.4104892
克瑞電子股份有限公司|高雄市前鎮區高雄加工出口區南六路5號四樓|電子零組件製造業|22.591249|120.295106
克瑪里能源科技股份有限公司|南科高雄園區高雄市路竹區路科三路6號|電力設備製造業|22.8323334|120.2609476
克茂企業有限公司|高雄市鳳山區輜汽北二路１０號|汽車及其零件製造業|22.6171982|120.3342593
克雷爾科技股份有限公司|高雄市岡山區岡山北路2巷45號|機械設備製造業|22.8096493|120.2882226
克雷特有限公司|高雄市仁武區仁武里工業二路１７巷６３號|金屬製品製造業,機械設備製造業|22.6987996|120.3409385
兌泳有限公司|高雄市大寮區潮寮里田單四街２２號|基本金屬製造業,金屬製品製造業|22.5741096|120.4300394
兢悅創藝有限公司|高雄市大寮區潮寮里田單七街30號|金屬製品製造業|22.5713694|120.4296701
內門加油站|高雄市內門區南屏路125號|加油站|22.9209656|120.4555618
全元化學有限公司|高雄市前鎮區金福路１４號|化學材料製造業|22.568901|120.323845
全友企業有限公司|高雄市燕巢區鳳雄里鳳東路３１２巷８號|食品製造業|22.7585081|120.359516
全台晶像股份有限公司|高雄市前鎮區高雄加工出口區南三路5號|電子零組件製造業,電腦、電子產品及光學製品製造業|22.5655767|120.3165788
全台灣金屬科技股份有限公司|高雄市鳥松區美山路36巷1之29號|金屬製品製造業|22.6407543|120.3810685
全味興食品有限公司|高雄市林園區中門里中門路３３９巷３０號|食品製造業|22.5081849|120.3646378
全國三多路加油站|高雄市苓雅區三多二路197號|加油站|22.6195838|120.3223874
全國九如交流道加油站|高雄市三民區九如一路469號|加油站|22.63876|120.329305
全國仁武交流道加油站|高雄市仁武區鳳仁路166號|加油站|22.6944992|120.3487297
全國北高加油站|高雄市三民區熱河二街338號|加油站|22.644915|120.292099
全國大寮加油站|高雄市大寮區鳳林四路398號|加油站|22.6209461|120.3809656
全國小港機場加油站|高雄市小港區大業北路29號|加油站|22.5652507|120.3458345
全國高雄大順加油站|高雄市三民區大順二路856號|加油站|22.655515|120.316173
全國鳥松加油站|高雄市鳥松區美山路121號|加油站|22.6498605|120.3916869
全國鳳屏加油站|高雄市大寮區鳳屏一路810號|加油站|22.638653|120.3981902
全國鳳山加油站|高雄市鳳山區中山西路218號|加油站|22.6279457|120.3488843
全存企業有限公司|高雄市大寮區過溪里濃公路２５６巷５７號|金屬製品製造業|22.5726927|120.4161591
全宏實業社|高雄市湖內區海山里忠孝街315之2號|金屬製品製造業|22.8948187|120.2274729
全宬工業有限公司|高雄市大寮區鳯林二路293之75號|金屬製品製造業,機械設備製造業|22.5765645|120.4090676
全尚美有限公司|高雄市大寮區大寮里大有四街１３號|食品製造業,飲料製造業|22.5847946|120.4251578
全岑股份有限公司|高雄市路竹區環球路9巷211號|金屬製品製造業|22.879738|120.2760289
全巨發股份有限公司|高雄市大社區保社里旗楠路99-3號|金屬製品製造業|22.7493783|120.3455338
全弘國際實業股份有限公司高雄廠|高雄市大寮區大寮里裕民街31號|食品製造業|22.5881977|120.4353912
全彬有限公司仁武廠|高雄市仁武區竹後里鳳仁路２８７之３９號|金屬製品製造業,機械設備製造業|22.7045884|120.342304
全影有限公司|高雄市鳳山區鳳仁路93-16號2樓|電力設備製造業|22.6397128|120.3726065
全文昇漁業股份有限公司附設漁具加工廠|高雄市前鎮區漁港南三路７號|其他製造業|22.565822|120.316803
全昌成企業社|高雄市阿蓮區港後里港後161之23號|金屬製品製造業|22.8720711|120.316533
全春吉有限公司岡山廠|高雄市岡山區本洲里本洲路５５之４７號|塑膠製品製造業|22.805295|120.277355
全春吉有限公司|高雄市岡山區為隨西路13巷12號|塑膠製品製造業|22.8118478|120.2904751
全曜模具工廠|高雄市岡山區嘉新西路３６號|基本金屬製造業,機械設備製造業|22.8039578|120.2946361
全榮食品有限公司|高雄市鳳山區北門里鳳仁路242巷20號|食品製造業|22.6328208|120.3627465
全民發食品有限公司|高雄市仁武區考潭里仁心路246號|食品製造業|22.6883453|120.3666082
全永順股份有限公司大業廠|高雄市大寮區大寮里大業街３７號|其他製造業|22.5878855|120.4305818
全津食品股份有限公司|高雄市小港區中亨街２６號|食品製造業|22.5257057|120.3614102
全漢企業股份有限公司高雄分公司|高雄市楠梓區楠梓加工出口區東三街2-3、4-3、6-3、2-4號|電子零組件製造業|22.7224982|120.3094053
全球安聯科技股份有限公司|南科高雄園區高雄市路竹區路科五路92號2樓、96號2樓|金屬製品製造業,其他運輸工具及其零件製造業,其他製造業|22.835928|120.256226
全盈工業社|高雄市岡山區華崗里華崗路１０５巷２號|金屬製品製造業|22.8246207|120.3226077
全盛工程企業有限公司|高雄市前鎮區新福路７號|電力設備製造業,機械設備製造業|22.5799866|120.3173758
全立五金彈簧有限公司二廠|高雄市鼓山區大順一路４３２巷６１號|金屬製品製造業|22.6551201|120.3045431
全立五金彈簧有限公司大順廠|高雄市鼓山區大順一路432巷60號|金屬製品製造業|22.65491|120.304271
全立五金彈簧有限公司|高雄市鼓山區大順一路４３２巷６２號|金屬製品製造業|22.6549155|120.3045616
全立發國際開發有限公司|高雄市岡山區岡山里岡山路６１０巷１弄１０號|機械設備製造業|22.803311|120.2911336
全紅餐飲有限公司|高雄市梓官區大舍東路300巷36、38號|食品製造業|22.7475049|120.2628196
全美手套工業股份有限公司|高雄市小港區東林路４之１號|成衣及服飾品製造業|22.545172|120.376749
全興紙器有限公司|高雄市前鎮區新強路５號|紙漿、紙及紙製品製造業|22.578875|120.316586
全英精密工業股份有限公司一廠|高雄市湖內區太爺里中山路二段２巷１７弄２４號|機械設備製造業|22.9018238|120.2349068
全英精密工業股份有限公司三廠|高雄市湖內區太爺里中山路二段二巷１７弄１３號|機械設備製造業|22.9021318|120.2346785
全英精密工業股份有限公司二廠|高雄市湖內區太爺里中山路二段2巷17弄11號|電子零組件製造業,電腦、電子產品及光學製品製造業|22.9013325|120.2352193
全英精密工業股份有限公司|高雄市湖內區太爺里中山路二段二巷１７弄２２號|機械設備製造業|22.9017747|120.235092
全葳工業有限公司|高雄市岡山區華崗里大埔二街135巷62號|金屬製品製造業|22.8228772|120.3216866
全谷電料工程有限公司|高雄市仁武區竹後里鳳仁路285巷9號|電力設備製造業,其他運輸工具及其零件製造業|22.7039399|120.3433164
全通加油站|高雄市大樹區大坑路109號|加油站|22.7189273|120.4402554
全鎧鋁業股份有限公司|高雄市湖內區太爺里中山路二段７４號|基本金屬製造業|22.9046522|120.2303721
全鑫企業社|高雄市仁武區南昌巷26弄11號|金屬製品製造業|22.69495|120.376244
全陞模具工業股份有限公司|高雄市岡山區為隨里為隨西路６９巷１２號|金屬製品製造業,電腦、電子產品及光學製品製造業|22.8155668|120.2887247
全雄工廠股份有限公司|高雄市阿蓮區民族路４００號|金屬製品製造業|22.8870078|120.3344973
八九生技有限公司|高雄市燕巢區安招里安林二街48號1樓|飲料製造業|22.7879172|120.3319497
八方雲集國際股份有限公司高雄廠|高雄市鳳山區北門里鳳仁路184號|食品製造業|22.6369524|120.3717243
八海企業有限公司|高雄市燕巢區安招里安招路６７１巷２２號|金屬製品製造業,機械設備製造業|22.7911735|120.3422369
八澤實業有限公司大發廠|高雄市大寮區琉球里農場路１８９號|塑膠製品製造業|22.617338|120.4276055
八躍實業股份有限公司|高雄市林園區龔厝里前厝路２７之１號|食品製造業|22.5081638|120.3760222
八達元帥生物科技股份有限公司|高雄市燕巢區安招里安林四街３４號|飲料製造業|22.7867794|120.3312729
公宏行企業有限公司|高雄市三民區灣興里灣興街３９巷７號|電腦、電子產品及光學製品製造業|22.6508657|120.3118007
公準精密工業股份有限公司本廠|高雄市仁武區仁武里工業一路６之２號|金屬製品製造業,電腦、電子產品及光學製品製造業|22.7001222|120.3410172
公準精密工業股份有限公司航太廠|高雄市仁武區五和里八德二路１７０號|金屬製品製造業,電腦、電子產品及光學製品製造業,電力設備製造業,其他運輸工具及其零件製造業,其他製造業|22.7014568|120.3233511
公準精密工業股份有限公司高科技廠|高雄市仁武區五和里八德二路１６８號|金屬製品製造業,機械設備製造業,其他運輸工具及其零件製造業,其他製造業|22.7009048|120.3249679
公準精密工業股份有限公司|高雄市仁武區仁武里工業一路６號|金屬製品製造業,機械設備製造業|22.7001222|120.3410172
公盛工業有限公司|高雄市楠梓區中陽里楠陽路１３７號|金屬製品製造業,機械設備製造業|22.723338|120.329447
六中工業股份有限公司|高雄市彌陀區鹽埕里產業路１７６號|機械設備製造業,汽車及其零件製造業|22.7928456|120.2411337
六和耐火工業股份有限公司|高雄市岡山區程香里岡燕路４８５巷１０３號|非金屬礦物製品製造業|22.7939182|120.3104734
六品國際食品有限公司|高雄市燕巢區安招里安林五街２２號|食品製造業|22.7861795|120.3314666
六晟企業有限公司|高雄市仁武區竹後里鳳仁路３６９巷２８弄７６號|非金屬礦物製品製造業,金屬製品製造業|22.6839516|120.3543192
六晟工業廠|高雄市仁武區竹後里鳳仁路３６９巷２８弄７８號|非金屬礦物製品製造業,金屬製品製造業|22.684113|120.3541974
六江電機企業有限公司|高雄市燕巢區安招里安林四街７３號|機械設備製造業,其他運輸工具及其零件製造業|22.7873716|120.3331138
六象工業有限公司|高雄市大樹區九曲里九大路河濱二巷４２號|機械設備製造業|22.6522095|120.425294
六造企業有限公司|高雄市岡山區本洲里本洲路９３巷１號|基本金屬製造業,機械設備製造業|22.8069123|120.2649829
六龜加油站|高雄市六龜區光復路308號|加油站|22.9922068|120.6359678
共威企業有限公司二廠|高雄市岡山區協和里巨輪路257號|金屬製品製造業|22.800984|120.276074
共威企業有限公司|高雄市岡山區前峰里公園西路三段７８號|機械設備製造業|22.794636|120.284168
其昜電動車科技股份有限公司|高雄市仁武區烏林里仁林路236-1號|其他運輸工具及其零件製造業|22.6980679|120.3732747
其祥食品有限公司美山廠|高雄市鳥松區美山路７０巷４號|食品製造業|22.6432853|120.3849928
其祥食品有限公司|高雄市三民區德西里中華二路４２３、４２５號|食品製造業|22.64895|120.291415
具鑫企業有限公司|高雄市岡山區為隨里為隨西路８號|基本金屬製造業|22.8120605|120.2912892
典味食品有限公司|高雄市大社區保社里中正路３９１之２號|食品製造業|22.7459608|120.3506197
典宏企業社|高雄市阿蓮區石安里石安２２９－８號|機械設備製造業|22.88599|120.312905
典志企業有限公司|高雄市大樹區小坪里友隆路７１號|非金屬礦物製品製造業|22.680627|120.4111107
典欣食品專工廠|高雄市大寮區義和里鳳屏二路373之2號|食品製造業|22.6432608|120.4226483
典輝光電股份有限公司|高雄市前鎮區仁愛里新都路３６號|電子零組件製造業,電力設備製造業|22.580527|120.314209
再富有限公司|高雄市林園區中門路339巷26弄50號|金屬製品製造業|22.5078787|120.3646701
再展冷却器企業有限公司|高雄市三民區港東里河北一路２６５號|機械設備製造業,汽車及其零件製造業,其他運輸工具及其零件製造業|22.636593|120.307039
再展冷器企業有限公司鳳山廠|高雄市鳳山區鎮北里鳳仁路９２之１３號|金屬製品製造業,電力設備製造業,機械設備製造業,汽車及其零件製造業,其他運輸工具及其零件製造業|22.632922|120.3617
再振企業股份有限公司|高雄市小港區漢民路１１２號|機械設備製造業|22.5629008|120.3498777
再環有限公司|高雄市大寮區民權街69巷10號|金屬製品製造業|22.6431296|120.3969663
再生加油站|高雄市路竹區復興路213號|加油站|22.8481446|120.2730207
冠全實業股份有限公司二廠|高雄市岡山區嘉峰里田厝路60巷8號|金屬製品製造業|22.8273733|120.3126408
冠勝鋁模股份有限公司|高雄市鳥松區仁美里美山路１９巷１７號|金屬製品製造業,機械設備製造業,家具製造業|22.6440261|120.3777612
冠勝電機股份有限公司|高雄市仁武區竹後里竹工三巷３３之３號|電子零組件製造業,電腦、電子產品及光學製品製造業,電力設備製造業,機械設備製造業|22.7132018|120.3320894
冠均食品有限公司|高雄市岡山區嘉興里嘉華路１３５號|食品製造業|22.823338|120.3117288
冠宗企業有限公司路竹廠|高雄市路竹區甲南里大仁路５６１號|其他製造業|22.8705859|120.2686403
冠宣有限公司|高雄市梓官區梓平里和平路１３之１２號|金屬製品製造業|22.7530293|120.2616626
冠帝企業股份有限公司高雄廠|高雄市岡山區灣裡里岡山北路１９３巷２８號|機械設備製造業|22.8105689|120.2783972
冠帝興業股份有限公司梓官廠|高雄市梓官區赤崁里赤崁北路158、162號|木竹製品製造業|22.7425226|120.2457898
冠晟興企業股份有限公司二廠|高雄市仁武區竹後里鳳仁路307巷71號1樓|金屬製品製造業,機械設備製造業,其他運輸工具及其零件製造業|22.7034352|120.3420666
冠晟興企業股份有限公司|高雄市仁武區竹後里鳳仁路３０７巷６９號|金屬製品製造業,其他運輸工具及其零件製造業|22.6852544|120.3533106
冠東鋼鐵股份有限公司|高雄市三民區自由一路２２５號|基本金屬製造業|22.651679|120.308744
冠東鋼鐵股份有限公司|高雄市燕巢區角宿里四林路１１６號|金屬製品製造業|22.7763813|120.3461662
冠欽工程有限公司|高雄市梓官區梓信里四維路96-58號|金屬製品製造業,機械設備製造業|22.7686635|120.2573434
冠武企業有限公司|高雄市三民區灣子里民族一路５６０巷１６號|機械設備製造業|22.6573019|120.3175654
冠海製冰冷凍股份有限公司|高雄市茄萣區崎漏里大發路１０３號|其他製造業|22.8676956|120.1936537
冠源食品有限公司|高雄市大樹區瓦厝街6-147號|食品製造業|22.6452111|120.4178486
冠瑞冷凍設備企業有限公司|高雄市左營區菜公里民族一路９４０之１號|其他運輸工具及其零件製造業|22.6747194|120.3186968
冠瑩電子股份有限公司|高雄市前鎮區新衙路２８６之９號２樓之１|電子零組件製造業|22.582909|120.315088
冠男精密實業有限公司路竹廠|高雄市路竹區社西里大仁路６２３巷１１１號|金屬製品製造業|22.8715959|120.2738602
冠真企業有限公司|高雄市湖內區民生街131之3號|食品製造業|22.8784814|120.2494797
冠祿興業有限公司|高雄市大寮區潮寮里田單七街１６號|基本金屬製造業|22.5713143|120.4309463
冠立升工業有限公司|高雄市路竹區竹滬里華山路１號|金屬製品製造業|22.864198|120.2293405
冠興企業有限公司|高雄市鳥松區仁美里水管路２３號|其他製造業|22.6472337|120.3868711
冠誠國際股份有限公司阿蓮廠|高雄市阿蓮區玉庫里玉庫1-37號|金屬製品製造業|22.83933|120.3149
冠豪冷凍企業股份有限公司|高雄市永安區維新里永工三路９號|金屬製品製造業|22.815473|120.2500596
冠豪國際實業有限公司二廠|高雄市大寮區華七街2號|金屬製品製造業|22.5822809|120.4183423
冠豪國際實業有限公司|高雄市大寮區裕民街２９號|基本金屬製造業|22.5880081|120.4353771
冠通企業社|高雄市林園區西溪路１９３巷５之１１號|電力設備製造業|22.4905278|120.393373
冠鈺機械工程股份有限公司|高雄市林園區西溪路１９３巷５之３號|機械設備製造業|22.4905278|120.393373
冠鋒企業社|高雄市仁武區後安里後庄巷１５６之１號|金屬製品製造業|22.711963|120.343537
冠閎科技企業有限公司|高雄市大社區中正路578號|塑膠製品製造業|22.7450225|120.3499581
冠閥企業有限公司|高雄市燕巢區安招里中民路793巷6號|機械設備製造業|22.7907864|120.3543539
冠順企業股份有限公司仁武廠|高雄市仁武區後安里永宏巷１２弄４３號|機械設備製造業|22.7137594|120.3414895
冠驊企業股份有限公司|高雄市前鎮區國華一街１號|化學材料製造業|22.58787|120.302517
冰海生物科技有限公司|高雄市阿蓮區南蓮里中山路５９５號|飲料製造業|22.8678094|120.3237969
冰點企業有限公司|高雄市小港區山明里東林路１２之３號|食品製造業|22.543999|120.375023
冷研科技有限公司高雄廠|高雄市鳳山區文龍東路57巷1弄23號|化學材料製造業|22.6401867|120.3738927
凡勝企業有限公司|高雄市彌陀區鹽埕里產業路１５０號|機械設備製造業,汽車及其零件製造業,其他運輸工具及其零件製造業|22.7928456|120.2411337
凡民企業社|高雄市岡山區灣裡里岡山北路１９３巷３８號|機械設備製造業|22.8105689|120.2783972
凡華企業有限公司|高雄市大寮區溪寮里溪寮路２６之８８號|非金屬礦物製品製造業|22.628953|120.4196415
凡響企業有限公司二廠|高雄市彌陀區鹽埕里產業路１６２號|金屬製品製造業|22.7929657|120.2411747
凡響企業有限公司|高雄市彌陀區鹽埕里產業路１５２號|汽車及其零件製造業,其他運輸工具及其零件製造業|22.7928456|120.2411337
凱台漆料工業有限公司|高雄市鳳山區鎮北里鎮北北巷２１之８號|化學材料製造業,化學製品製造業|22.644551|120.3726552
凱喬科技實業有限公司仁武廠|高雄市仁武區仁心路267號|化學製品製造業,塑膠製品製造業|22.689772|120.3679916
凱喬科技實業有限公司|高雄市燕巢區瓊林里安招路８３２巷２號|化學製品製造業|22.7895425|120.3170679
凱宇工業有限公司|高雄市路竹區民有路６３７，６３９號|金屬製品製造業,機械設備製造業|22.8216684|120.2742949
凱弘汽車修配股份有限公司|高雄市路竹區竹南里中山路1461號|汽車及其零件製造業|22.8491528|120.2623282
凱揚企業社|高雄市湖內區大湖里中山路一段５４１巷１６弄３２號|金屬製品製造業|22.883623|120.2460285
凱昇傢俱有限公司|高雄市彌陀區產業路180號|家具製造業|22.7928456|120.2411337
凱景實業股份有限公司小港廠|高雄市小港區大業南路42號|金屬製品製造業|22.5319266|120.3680724
凱景實業股份有限公司鳳屏廠|高雄市大寮區後庄里民貴街１７７號|基本金屬製造業,金屬製品製造業|22.6346736|120.3833789
凱皓企業有限公司岡山廠|高雄市岡山區壽峰里前鋒路２８６巷３號|機械設備製造業|22.796071|120.287469
凱祺盛國際有限公司仁武廠|高雄市仁武區烏林里林森巷１１３號|其他製造業|22.6973665|120.3752867
凱統實業股份有限公司|高雄市湖內區太爺里中山路二段二巷１７弄１２之７、１２之８號|塑膠製品製造業|22.9012385|120.2354145
凱貴企業有限公司|高雄市橋頭區頂鹽里復興西路12號|金屬製品製造業|22.7459658|120.2730457
凱閔不銹鋼有限公司二廠|高雄市岡山區協和里致遠路12號|金屬製品製造業|22.794841|120.2732229
凱雍工業股份有限公司二廠|高雄市岡山區潭底里潭底路２８０號|金屬製品製造業|22.8315432|120.309648
利元科技有限公司仁武廠|高雄市仁武區竹後里水管路293號|塑膠製品製造業|22.7061287|120.3399427
利原企業有限公司|高雄市小港區小港路６３之３號|非金屬礦物製品製造業|22.565221|120.343597
利品生物科技有限公司|高雄市鳳山區鳳仁路97-63號|食品製造業|22.638889|120.373192
利城帆布有限公司|高雄市仁武區鳳仁路２８７－１９號|塑膠製品製造業,金屬製品製造業|22.7045884|120.342304
利安鑫食品有限公司|高雄市岡山區為隨里為隨東路５８巷２７號|食品製造業|22.8196506|120.2912773
利家毛刷有限公司|高雄市大寮區華西路３３號２樓|塑膠製品製造業,其他製造業|22.5797011|120.4227629
利新事業股份有限公司|高雄市岡山區潭底里興隆街608號|化學材料製造業|22.8195339|120.2981313
利永環球科技股份有限公司高雄路竹電子廠|高雄市路竹區環球路461號|電子零組件製造業,電腦、電子產品及光學製品製造業|22.8823924|120.24921
利泰牙板有限公司二廠|高雄市岡山區嘉華路80巷68號|金屬製品製造業|22.8236923|120.3143383
利泰牙板有限公司|高雄市岡山區壽峰里前峰路２８６巷９號|金屬製品製造業|22.7983732|120.2843207
利洲實業有限公司橋頭廠|高雄市橋頭區芋寮里芋寮路301號|食品製造業|22.7613954|120.2820281
利洲實業有限公司|高雄市橋頭區頂鹽里鹽田路90-20號|化學製品製造業|22.7463712|120.2826563
利源科技股份有限公司運通廠|高雄市前鎮區信義里新衙路２８６之９號１樓|電子零組件製造業|22.582909|120.315088
利義企業有限公司|高雄市湖內區太爺里中山路二段２２６巷３號|食品製造業|22.9009839|120.2354516
利豐工業社|高雄市阿蓮區玉庫里玉庫50之1號|金屬製品製造業|22.8438734|120.3108803
利達國際開發企業有限公司|高雄市燕巢區安招里安林三街71號1樓|機械設備製造業|22.787786|120.3330651
利順昌實業有限公司|高雄市大寮區大寮里光華路４號|塑膠製品製造業|22.5828059|120.4314322
前進海事工程有限公司|高雄市前鎮區新生路５巷３３號|電力設備製造業,其他運輸工具及其零件製造業|22.5877079|120.304598
前鋒加油站|高雄市岡山區前鋒路238號|加油站|22.8017594|120.2809309
前鎮加油站|高雄市前鎮區擴建路1之1號|加油站|22.591512|120.306132
剛健鋼鐵工業股份有限公司林園廠|高雄市林園區西溪路193巷5之21號|金屬製品製造業,其他運輸工具及其零件製造業|22.4905278|120.393373
剴立企業股份有限公司|高雄市湖內區太爺里中山路２段２巷１７弄１４之７號|金屬製品製造業,機械設備製造業|22.9015005|120.2352626
創利螺絲工業股份有限公司|高雄市岡山區為隨東路62號|金屬製品製造業|22.8195157|120.289858
創友春網業有限公司|高雄市小港區桂陽路175巷6弄1號|紡織業|22.580118|120.3553454
創寶特殊精密工業有限公司|高雄市小港區小港里平和二路9號|塑膠製品製造業,機械設備製造業|22.5596216|120.3358613
創美工業股份有限公司|高雄市仁武區竹後里竹工二巷１０號|機械設備製造業|22.710453|120.332358
劉先譜食品工業股份有限公司|高雄市岡山區協榮里仁壽南路１００號|食品製造業,飲料製造業|22.7823075|120.2835658
劍鋒企業有限公司|高雄市鳳山區鎮北里鎮北北巷２４之２號|電腦、電子產品及光學製品製造業,電力設備製造業|22.6439359|120.3718788
劍騰實業有限公司|高雄市前鎮區擴建路１之２６號１樓|金屬製品製造業|22.589841|120.302955
力信企業社|高雄市岡山區華崗里華崗路5號|金屬製品製造業|22.825079|120.328378
力傑有限公司|高雄市橋頭區芋寮里芋林路２８０號|金屬製品製造業|22.7653677|120.2820381
力全電熱企業有限公司|高雄市三民區九如一路３５３號|電力設備製造業|22.6381677|120.332715
力凱機電股份有限公司|高雄市岡山區嘉興里嘉華路２６之３號|金屬製品製造業,電腦、電子產品及光學製品製造業,機械設備製造業|22.8238896|120.3161621
力勤實業股份有限公司岡山廠|高雄市岡山區本洲里本工西二路３５號|化學製品製造業|22.8156133|120.2699907
力友五金有限公司|高雄市前鎮區新生路5巷18號|紡織業|22.5879659|120.3049127
力善食品有限公司|高雄市鳳山區鳳仁路86之22號1樓|食品製造業|22.638963|120.374484
力大螺絲工廠股份有限公司本洲廠|高雄市岡山區本工東一路1號|金屬製品製造業|22.8077539|120.2740363
力大螺絲工廠股份有限公司永安廠|高雄市永安區維新里永工三路９、１１號|金屬製品製造業|22.8133229|120.2499578
力大鋼鐵工業股份有限公司中華廠|高雄市湖內區海埔里中華街74巷18號|金屬製品製造業|22.8992205|120.2239371
力天企業社燕巢廠|高雄市燕巢區安招里成大街６號|金屬製品製造業|22.788681|120.334367
力宸食品行|高雄市大寮區民族路413號|食品製造業|22.638616|120.3944021
力巨人有限公司|高雄市大寮區中庄里立德路１１１巷４２號|金屬製品製造業|22.6339248|120.3940511
力建鋼鐵股份有限公司|高雄市小港區東林路９號|金屬製品製造業|22.5442489|120.376254
力慶橡膠工業股份有限公司|高雄市大寮區大仁街２９號|橡膠製品製造業|22.5949099|120.4170202
力揚貿易有限公司|高雄市仁武區後安里永宏巷12弄6號|石油及煤製品製造業|22.7150166|120.3408422
力樂企業股份有限公司|高雄市三民區建和街４２號|電腦、電子產品及光學製品製造業|22.6468403|120.3209219
力正衡器有限公司|高雄市岡山區灣裡里正氣路１９９巷１２號|電腦、電子產品及光學製品製造業|22.8049719|120.2804815
力源電子有限公司大寮廠|高雄市大寮區鳳屏一路39號|電子零組件製造業|22.6321128|120.38545
力漢企業股份有限公司|高雄市路竹區竹園里環球路１５號|食品製造業,化學材料製造業|22.8780445|120.3000596
力煒奈米科技股份有限公司高科分公司|高雄市路竹區路科二路59號4樓|化學材料製造業|22.828654|120.2589548
力詠企業有限公司|高雄市湖內區田尾里中山路１段８４８巷１８弄３－５號|金屬製品製造業,機械設備製造業|22.8953387|120.2398708
力連機械股份有限公司|高雄市路竹區社南里復興路９之２號|機械設備製造業|22.8516204|120.268997
力鈿工業股份有限公司|高雄市彌陀區鹽埕里產業路１８８號|機械設備製造業|22.793255|120.2409088
力際電機實業有限公司|高雄市鳥松區仁美里天津路１８號|電力設備製造業|22.6573336|120.3924211
力飛企業有限公司|高雄市彌陀區新庄路１之４號|金屬製品製造業|22.7559032|120.2457515
力高工業股份有限公司二廠|高雄市大寮區大寮里興業路１９號|基本金屬製造業,金屬製品製造業|22.5904037|120.4287405
力高工業股份有限公司|高雄市大寮區大發工業區裕民街４號|金屬製品製造業|22.5901414|120.4354985
加和實業有限公司|高雄市三民區灣興里灣興街５０巷１４號|食品製造業|22.652331|120.31314
加城冷氣冷凍機械有限公司|高雄市大寮區江山里光明路３段１５２８號|機械設備製造業|22.6377288|120.402088
加安欣企業有限公司|高雄市大寮區大有三街4號|金屬製品製造業|22.5862266|120.4279361
加密佳食品廠有限公司|高雄市大樹區竹寮里竹寮路３０７號|食品製造業,飲料製造業|22.6628275|120.4216248
加州健康生技有限公司|高雄市岡山區前峰路286巷5號|食品製造業,飲料製造業|22.7941363|120.2896413
加州能源科技有限公司|高雄市岡山區灣裡里岡山北路193巷51弄33號|電力設備製造業|22.8102451|120.2781428
加得科技有限公司高雄廠|高雄市岡山區壽峰里前峰路286巷11號|金屬製品製造業|22.7983716|120.284362
加新塑膠廠股份有限公司|高雄市三民區通化街１２０號|印刷及資料儲存媒體複製業,塑膠製品製造業|22.644369|120.2934
加昌加油站|高雄市楠梓區加昌路119號|加油站|22.7221842|120.3166171
加昌塑膠企業股份有限公司|高雄市橋頭區西林里西林路１３８號|塑膠製品製造業|22.7647378|120.288913
加禾興業有限公司|高雄市燕巢區瓊林里瓊林路６４巷５２之１０號|電力設備製造業,機械設備製造業|22.7989621|120.3261826
加豐塑膠工廠|高雄市大寮區中庄里八德路９０號|塑膠製品製造業|22.6342725|120.3934751
加郁企業有限公司大寮廠|高雄市大寮區潮寮里富民街１７號|基本金屬製造業|22.5783468|120.4304517
加銘鋼鐵工業股份有限公司|高雄市左營區民族一路６５９之１號|金屬製品製造業,機械設備製造業|22.6699709|120.3171411
加高電子股份有限公司|高雄市大寮區大發工業區華東路３９號|電子零組件製造業|22.5872287|120.4323103
劦崇企業有限公司梓官廠|高雄市梓官區赤崁里赤崁北路３５０巷８號|金屬製品製造業,機械設備製造業|22.7453895|120.2462527
劦清企業有限公司二廠|高雄市岡山區嘉峰路2巷20號|金屬製品製造業|22.8246853|120.3100937
劦發企業股份有限公司二廠|高雄市岡山區程香里岡燕路４６３號|金屬製品製造業|22.7911811|120.3088913
劦發企業股份有限公司|高雄市岡山區新庄路11-51號|金屬製品製造業|22.8066427|120.3041212
劦耀鋼鐵股份有限公司燕巢廠|高雄市燕巢區安招里成大街２２號|金屬製品製造業|22.7880226|120.3370984
劦茂金屬股份有限公司二廠|高雄市岡山區本洲里本工西路２號|金屬製品製造業|22.8114868|120.2668966
劦茂金屬股份有限公司|高雄市岡山區本洲里本工西路８號|金屬製品製造業|22.8132055|120.264256
劦風企業有限公司高雄廠|高雄市仁武區竹後里鳳仁路３６９巷２８弄２１號|機械設備製造業|22.7039776|120.3432951
助汪企業有限公司|高雄市小港區台糖路１５號|塑膠製品製造業,機械設備製造業|22.5647277|120.3432091
劼大實業有限公司|高雄市前鎮區新衙路２８６之３號４之１樓|電子零組件製造業|22.582638|120.3154
劼榮科技股份有限公司|高雄市前鎮區信義里新衙路２８６之５號４樓之１|電子零組件製造業|22.582587|120.315343
勁勇股份有限公司|高雄市湖內區太爺里中山路二段90號|金屬製品製造業|22.9045656|120.2302202
勁固鋼業有限公司二廠|高雄市岡山區信中街200號|金屬製品製造業|22.8187907|120.307192
勁固鋼業有限公司|高雄市岡山區台上里成功路４６０巷３１號|基本金屬製造業|22.8105589|120.3009835
勁揚企業股份有限公司大發廠|高雄市大寮區大寮里利民街３４號|金屬製品製造業,機械設備製造業|22.5897967|120.4343023
勁邦企業有限公司|高雄市鳳山區鎮北里鳳仁路１０２之１６號|機械設備製造業|22.639717|120.374899
勇信企業工程行|高雄市鳳山區鎮北里鳳仁路１００之２０號|金屬製品製造業|22.638918|120.37415
勇勁企業社|高雄市岡山區嘉興里信中街61巷95-25號|金屬製品製造業|22.8201046|120.3105109
勇大不銹鋼有限公司|高雄市前鎮區鎮北里擴建路１之３１號|金屬製品製造業|22.589537|120.302676
勇宇實業股份有限公司|高雄市大寮區中庄里立德路１４７號|塑膠製品製造業|22.6290308|120.3844712
勇昌機械工程有限公司|高雄市大寮區江山里鳳屏二路7之1號|金屬製品製造業|22.6414664|120.4137765
勇銘企業社|高雄市阿蓮區港後里港後120-7、120-8號|金屬製品製造業|22.8724052|120.315586
勇鑽企業有限公司|高雄市岡山區成功路460巷1號|金屬製品製造業|22.8113479|120.3006105
動能國際發展股份有限公司|高雄市梓官區大舍東路300巷35號|非金屬礦物製品製造業|22.7473714|120.2625074
勝一化工股份有限公司前鎮廠|高雄市前鎮區立業街２號|化學材料製造業,化學製品製造業|22.5949597|120.2960383
勝一化工股份有限公司永安二廠|高雄市永安區維新里永工一路１８號|化學材料製造業|22.8168498|120.2543573
勝一化工股份有限公司|高雄市永安區維新里永工一路５號|化學材料製造業,化學製品製造業|22.8139199|120.2543323
勝上實業有限公司|高雄市湖內區湖內里民族街355號|木竹製品製造業,家具製造業|22.8838804|120.2350673
勝光蠟燭店|高雄市大寮區翁園里翁園路54之20號|化學製品製造業|22.625654|120.4105112
勝光體育有限公司|高雄市鳳山區興中里復華街１１號|成衣及服飾品製造業|22.624588|120.354611
勝原工廠有限公司|高雄市岡山區岡山里岡山路６１２之８號|基本金屬製造業,機械設備製造業|22.803069|120.290929
勝吉行|高雄市鳳山區文龍東路57巷1弄3號|食品製造業|22.6408966|120.3584901
勝宏企業社|高雄市岡山區嘉興里嘉華路80巷137號|金屬製品製造業|22.8233303|120.3116837
勝家工業社|高雄市湖內區太爺里中山路二段２２６巷１５弄２０號１樓|機械設備製造業|22.910156|120.2279257
勝富企業有限公司|高雄市鳳山區鎮北里鳳仁路１０４號|塑膠製品製造業|22.6390918|120.3755489
勝得造船廠股份有限公司|高雄市旗津區北汕里中洲三路２之４號|其他運輸工具及其零件製造業|22.596545|120.281737
勝暐企業有限公司大寮廠|高雄市大寮區上寮里上寮路２２５－１１號|電力設備製造業|22.6013587|120.4317366
勝暐企業有限公司|高雄市林園區中門里海乾路４６巷１２弄１０號|金屬製品製造業|22.5068016|120.3649211
勝泓企業股份有限公司|高雄市路竹區順安路３７１號|金屬製品製造業|22.8345129|120.2412336
勝球科技股份有限公司科技廠|高雄市岡山區為隨里為隨東路５８巷７、９號|金屬製品製造業|22.8191096|120.2902074
勝環橡膠企業有限公司|高雄市鳥松區仁美里中正路東豐巷70之1號|橡膠製品製造業|22.649159|120.3725398
勝益興食品有限公司高雄廠|高雄市三民區安邦里遼北街７號|食品製造業|22.647389|120.295343
勝祺刀模有限公司|高雄市大寮區民勝街220號|金屬製品製造業|22.643561|120.3972728
勝美企業有限公司|高雄市阿蓮區阿蓮里中正路２１６巷３２號|紡織業|22.8824449|120.337253
勝美興業有限公司|高雄市鳥松區仁美里北平路７４號|食品製造業|22.6565549|120.3984246
勝翔工業有限公司|高雄市鳳山區北門里鳳仁路２４２巷２號|金屬製品製造業,機械設備製造業|22.6382337|120.3752421
勝者製酒股份有限公司|高雄市大樹區竹寮里竹寮路187號|飲料製造業|22.6650891|120.4255631
勝興製材廠|高雄市美濃區龍山里復興街二段１７１號|木竹製品製造業|22.86363|120.555301
勝航工業股份有限公司大社廠|高雄市大社區保社里旗楠路８０巷２１０之６號|電子零組件製造業|22.7417336|120.3435848
勝葳特國際股份有限公司高雄廠|高雄市林園區中門里中門路３３９巷２６弄２３號１樓|化學製品製造業|22.5082331|120.3646327
勝蜂企業有限公司仁武廠|高雄市仁武區竹後里鳳仁路３２９之１９號|基本金屬製造業|22.7039713|120.3432986
勝豐企業社|高雄市燕巢區深水里大成路233號|非金屬礦物製品製造業|22.7720786|120.3774002
勝豐製冰冷藏股份有限公司|高雄市岡山里嘉新西路１１８號|其他製造業|22.802313|120.29271
勝達成衣有限公司|高雄市三民區旅順街７７號|紡織業|22.641239|120.3118506
勝鉉有限公司|高雄市大寮區三隆里鳳林二路８５６號|金屬製品製造業|22.5838783|120.4062558
勝鎧工業股份有限公司|高雄市岡山區台上里成功路４６０巷１５號|金屬製品製造業|22.8102234|120.3021465
勝驊企業有限公司|高雄市仁武區仁武里鳳仁路仁平巷１８號|家具製造業|22.6984828|120.3475531
勝麒鐵材有限公司|高雄市仁武區鳳仁路369巷28弄52號|金屬製品製造業|22.7144496|120.3347908
勝麒鐵材有限公司鳳仁廠|高雄市仁武區文武里鳳仁路138號|金屬製品製造業|22.6949618|120.3486905
勢申有限公司|高雄市岡山區永樂街2巷101號|金屬製品製造業|22.7956065|120.3076535
勤仲企業有限公司大發二廠|高雄市大寮區潮寮里建民街１號|橡膠製品製造業,塑膠製品製造業,基本金屬製造業,金屬製品製造業|22.5750373|120.4301395
勤仲企業有限公司建元廠|高雄市大寮區華西路３７號|橡膠製品製造業,塑膠製品製造業,基本金屬製造業|22.581033|120.422644
勤凱科技股份有限公司二廠|高雄市大寮區大寮里大有三街３２號１、２樓|化學製品製造業|22.58622|120.4236854
勤益螺絲有限公司二廠|高雄市路竹區民權路247、249號|金屬製品製造業|22.8738963|120.1957258
勤益螺絲有限公司|高雄市岡山區為隨里為隨東路６０之３號|金屬製品製造業|22.8192164|120.2898358
勳穎企業有限公司|高雄市岡山區潭底路260巷15號|金屬製品製造業|22.8289272|120.3086683
勳穎企業有限公司|高雄市岡山區灣裡里岡山北路２１號|金屬製品製造業|22.806022|120.287676
勵昂實業有限公司|高雄市燕巢區安招里安林六街３１號|金屬製品製造業,其他運輸工具及其零件製造業|22.7870428|120.333515
勵螢企業有限公司|高雄市大寮區潮寮里田單五街３號|基本金屬製造業|22.5731194|120.4328669
勵龍股份有限公司三廠|高雄市燕巢區角宿里四林路１４６之６號|非金屬礦物製品製造業|22.7736592|120.3456465
勵龍股份有限公司|高雄市燕巢區角宿里四林路１３２之６號|非金屬礦物製品製造業|22.7736592|120.3456465
化盛企業有限公司|高雄市大樹區竹寮里竹寮路３３６號|塑膠製品製造業|22.6631879|120.4216278
北京同仁堂生物科技股份有限公司食品廠|高雄市彌陀區鹽埕里產業路156之1號|食品製造業,飲料製造業|22.7928456|120.2411337
北京同仁堂生物科技股份有限公司高雄廠|高雄市彌陀區鹽埕里產業路156號|藥品及醫用化學製品製造業|22.7928456|120.2411337
北岡山加油站|高雄市岡山區岡山北路271號|加油站|22.8189771|120.271407
北嶺加油站|高雄市岡山區岡山北路246號|加油站|22.817129|120.2738823
北極光電股份有限公司|高雄市楠梓區楠梓加工出口區東三街8號|電子零組件製造業,電力設備製造業|22.722148|120.308661
北海岸食品開發有限公司|高雄市大樹區竹寮里竹寮路１８９號|食品製造業|22.665093|120.4255271
北耕企業有限公司|高雄市鳥松區東山路橫一巷19號|電力設備製造業|22.6704015|120.3675986
北誼興業股份有限公司高雄工廠|高雄市楠梓區稔田里高楠公路１０１５號|石油及煤製品製造業|22.7153112|120.3255955
北辰製藥有限公司|高雄市燕巢區尖山里大埔巷１１號|藥品及醫用化學製品製造業|22.8086324|120.3739907
匠心工程有限公司|高雄市小港區桂林里中安路501-9號|金屬製品製造業|22.5848066|120.3526733
匠萌技研股份有限公司二廠|高雄市大寮區過溪里大業街１２號|基本金屬製造業,機械設備製造業|22.5815532|120.4305549
匯永實業股份有限公司新衙廠|高雄市前鎮區新衙路296巷1-1號|食品製造業|22.581683|120.314331
匯浤製藥股份有限公司|高雄市岡山區本工南一路18號|藥品及醫用化學製品製造業|22.8047138|120.2707954
匯翔企業有限公司阿蓮廠|高雄市阿蓮區南蓮里中正路23巷10、12號|金屬製品製造業|22.8807864|120.3416494
匯鑫興業有限公司|高雄市岡山區永樂街2巷86號|木竹製品製造業|22.7961474|120.3095864
十全鋼鐵有限公司仁武一廠|高雄市仁武區八卦里八德一路16之6號|金屬製品製造業|22.6928165|120.3390718
十全鋼鐵有限公司仁武廠|高雄市仁武區八卦里八德一路92之16號|金屬製品製造業|22.6925465|120.3388095
十地興業有限公司|高雄市鳳山區鳳仁路９２之２３號|金屬製品製造業,機械設備製造業|22.636308|120.370075
十大軸瓦股份有限公司|高雄市前鎮區實業路１７３號|金屬製品製造業|22.573816|120.3181935
千井企業有限公司|高雄市仁武區考潭里仁心路１９９巷６號|金屬製品製造業,機械設備製造業|22.6881875|120.3635898
千友工程有限公司|高雄市大社區保社里萬金路１１號|金屬製品製造業,機械設備製造業|22.7483749|120.3441308
千城鋼鐵有限公司|高雄市大寮區過溪里莒光二街１２號|金屬製品製造業|22.5793276|120.4260981
千大彩色電子掃描製版股份有限公司|高雄市前鎮區新福路３號|印刷及資料儲存媒體複製業|22.5795224|120.3175705
千媚生技有限公司|高雄市大寮區大寮里大寮路３７３巷１１６號|化學製品製造業|22.5944615|120.4084731
千悅食品有限公司|高雄市前鎮區新衙路296巷17號|食品製造業|22.5824209|120.31255
千日峰企業有限公司|高雄市鳳山區力行路２１９號|機械設備製造業|22.6371364|120.3702139
千暉興業股份有限公司|高雄市仁武區竹後里竹楠路49號|機械設備製造業|22.706214|120.3331427
千森機械企業有限公司|高雄市大寮區新厝里光明路一段339巷106之12號|金屬製品製造業|22.5617475|120.4140549
千歲鐵材有限公司|高雄市岡山區岡山里嘉新西路３２之１號|金屬製品製造業|22.8039578|120.2946361
千統電子企業股份有限公司|高雄市三民區灣興里孝順街５３７巷１６號|電腦、電子產品及光學製品製造業,電力設備製造業|22.649364|120.314085
千越仁美加油站|高雄市鳥松區神農路370號|加油站|22.6591224|120.380174
千越梓官加油站|高雄市梓官區大舍南路238號|加油站|22.7423812|120.2632001
千越武慶加油站|高雄市鳳山區武慶二路306號|加油站|22.6101636|120.3330255
千越路竹加油站|高雄市湖內區中山路一段152號|加油站|22.8795295|120.2507876
千越鳳頂加油站|高雄市鳳山區鳳頂路225號|加油站|22.5910159|120.3583509
千里緣實業有限公司|高雄市燕巢區安林二街16號|食品製造業|22.7875844|120.3304036
千鐿企業股份有限公司竹楠廠|高雄市仁武區竹後里竹楠路２１號１樓|金屬製品製造業,機械設備製造業|22.7109192|120.3350456
千鐿企業股份有限公司|高雄市仁武區竹後里竹門巷２１之３號|金屬製品製造業,機械設備製造業,家具製造業|22.706809|120.3407949
千集鋼鐵股份有限公司仁武廠|高雄市仁武區工業一路３號|基本金屬製造業|22.7012635|120.3431005
升文企業有限公司高雄廠|高雄市燕巢區安招里中民路７９３巷３２號|金屬製品製造業,機械設備製造業|22.7907864|120.3543539
升暉機械有限公司|高雄市鳥松區仁美里水管路4巷2-5號|機械設備製造業|22.6469556|120.3872983
升暘企業股份有限公司二廠|高雄市前鎮區信義里興化街１３３巷９號|電腦、電子產品及光學製品製造業|22.5828632|120.3124208
升暘企業股份有限公司|高雄市前鎮區新衙路２９６巷３號|金屬製品製造業,電腦、電子產品及光學製品製造業,機械設備製造業|22.581757|120.314269
升福生物科技有限公司|高雄市湖內區中山路二段110號|食品製造業|22.9068855|120.2287184
升育鋼鐵股份有限公司|高雄市岡山區本洲里本工西路３６號|基本金屬製造業|22.8132055|120.264256
升華科技股份有限公司|高雄市仁武區鳳仁路324號|電力設備製造業|22.7115093|120.3392514
卓世企業有限公司|高雄市大寮區後庄里民成街139號1樓|機械設備製造業|22.6401513|120.3840453
卓羿科技有限公司|高雄市左營區新上里大順一路９３號１０樓之５|其他製造業|22.6558283|120.3113433
卓鋒企業有限公司|高雄市阿蓮區南蓮里中正路２３巷２０號、中正路２３巷１４弄３號|機械設備製造業|22.8807864|120.3416494
協乘企業有限公司|高雄市前鎮區擴建路１之３３號５樓|食品製造業|22.589541|120.302874
協利螺絲工廠|高雄市路竹區信義路１４４號|金屬製品製造業|22.8688913|120.2656015
協力大興業有限公司|高雄市路竹區鴨寮里復興路185-1號|金屬製品製造業|22.8481446|120.2730207
協勝發鋼鐵廠股份有限公司沿海廠|高雄市小港區鳳鳴里沿海三路７０號|金屬製品製造業|22.513123|120.3613578
協勝發鋼鐵廠股份有限公司|高雄市小港區店鎮里光陽街７、９號|基本金屬製造業|22.560423|120.364979
協原化學股份有限公司林園廠|高雄市林園區石化四路２號|化學製品製造業,塑膠製品製造業|22.4860401|120.409099
協和繩索企業有限公司燕巢廠|高雄市燕巢區角宿里四林路121巷22號|紡織業|22.7763796|120.3470926
協和耐火工業股份有限公司|高雄市小港區大業南路１號|非金屬礦物製品製造業|22.516925|120.3583359
協大企業社|高雄市岡山區協和里巨輪路260號|金屬製品製造業|22.7989042|120.2742324
協安工業股份有限公司|高雄市路竹區文北里延平路６８０巷６５號|金屬製品製造業|22.8590013|120.2450469
協富漁具工業股份有限公司|高雄市前鎮區漁港中二路２０號|紡織業,塑膠製品製造業|22.5690199|120.3205547
協展五金工業有限公司太爺廠|高雄市湖內區公舘里中山路二段59號|金屬製品製造業|22.9081671|120.2276106
協崎企業股份有限公司高雄廠|高雄市鳳山區鎮北里鳳仁路１００之９０號|基本金屬製造業,金屬製品製造業,機械設備製造業|22.638679|120.374646
協工企業股份有限公司|高雄市湖內區逸賢里建國街７號|家具製造業|22.9066893|120.2121738
協建木業有限公司|高雄市路竹區社西里大仁路８８３巷６號|木竹製品製造業|22.8709972|120.2669945
協志企業有限公司大發廠|高雄市大寮區內坑里內坑路１８之７號|石油及煤製品製造業|22.5811374|120.4057578
協成興化學工業有限公司阿蓮工廠|高雄市阿蓮區南蓮里中正路２２１號|化學製品製造業|22.8811775|120.3368577
協春企業股份有限公司|高雄市仁武區高楠里高楠七街１號|金屬製品製造業,機械設備製造業,其他運輸工具及其零件製造業|22.6925504|120.3249185
協晉紙器有限公司|高雄市岡山區嘉興里嘉華路１４１號|紙漿、紙及紙製品製造業|22.8231934|120.3116183
協杰企業有限公司|高雄市路竹區社南里大同路413巷46-1號|金屬製品製造業|22.8614829|120.2658055
協正興鐵工廠|高雄市前鎮區豐漁二路１１之１號|其他運輸工具及其零件製造業|22.5728108|120.3114261
協永發漁具股份有限公司|高雄市大寮區三隆路３００之１號|化學材料製造業|22.6023255|120.4080048
協永裕企業有限公司|高雄市燕巢區安招里安林四街３７號|機械設備製造業,其他運輸工具及其零件製造業|22.7869438|120.3314861
協泰螺絲工廠|高雄市阿蓮區民族路４２０號|金屬製品製造業|22.8870078|120.3344973
協淳實業有限公司|高雄市彌陀區彌陀里中正南路１９９之１號|基本金屬製造業|22.7732273|120.2551249
協田企業有限公司|高雄市大樹區九曲里九大路３７０號|金屬製品製造業,機械設備製造業|22.650763|120.4245969
協發食品行|高雄市橋頭區筆秀東路201-7號|食品製造業|22.766441|120.3170115
協益螺絲工廠股份有限公司|高雄市大社區保社里旗楠路４７號|金屬製品製造業|22.7318608|120.3296974
協益飼料股份有限公司茄萣廠|高雄市茄萣區中正路三段1之1號|食品製造業|22.9161155|120.1896141
協盛展業有限公司|高雄市路竹區社東里東安路36巷1100-7號|金屬製品製造業|22.8440255|120.2887744
協羽機材工業股份有限公司高雄廠|高雄市大寮區過溪里莒光一街11之1號|塑膠製品製造業|22.5807723|120.426283
協聚德股份有限公司|高雄市前鎮區擴建路１之２７號９樓|機械設備製造業|22.589812|120.302856
協聚德股份有限公司|高雄市大寮區民成街139之5號|機械設備製造業|22.6401513|120.3840453
協芳木業股份有限公司|高雄市燕巢區安招里安招路６８９號|木竹製品製造業|22.7893328|120.3317111
協豐海產有限公司|高雄市前鎮區新生路１３７號|食品製造業|22.5779913|120.3146791
協進造船工業股份有限公司|高雄市旗津區北汕里中洲三路７４巷４８號|其他運輸工具及其零件製造業|22.5982722|120.2807091
協金精技股份有限公司|高雄市燕巢區瓊林路975巷15號|其他運輸工具及其零件製造業|22.7992884|120.3290419
協飛企業有限公司大社廠|高雄市大社區保社里旗楠路８０巷２２０之３號|化學製品製造業|22.7417336|120.3435848
協飛企業有限公司|高雄市鳥松區東山路２７巷３０－２號|木竹製品製造業,化學製品製造業|22.6679578|120.3668832
南一路加油站|高雄市前鎮區漁港南一路19之1號|加油站|22.5684496|120.3177548
南亞塑膠工業股份有限公司仁武廠|高雄市仁武區竹後里水管路１０１號|塑膠製品製造業,機械設備製造業|22.7064233|120.3261652
南亞塑膠工業股份有限公司林園二廠|高雄市林園區溪州里工業一路６號|化學材料製造業|22.5120677|120.4046231
南俠企業有限公司|高雄市大寮區潮寮里華東路７號|基本金屬製造業|22.5715902|120.4326411
南傑實業股份有限公司|高雄市大樹區和山里和山路２００號|非金屬礦物製品製造業|22.6960075|120.4150666
南億塑膠有限公司二廠|高雄市鳳山區鎮北里鳳仁路９６、９６之１號|塑膠製品製造業|22.6377867|120.3730925
南億塑膠有限公司|高雄市鳳山區北門里鳳仁路２０８號|塑膠製品製造業|22.6374797|120.372716
南光國際興業有限公司橋頭廠|高雄市橋頭區新莊里保隆巷１５號１樓|成衣及服飾品製造業|22.7455777|120.3023443
南光堂印刷所有限公司|高雄市前金區長興里中正四路１４２號|印刷及資料儲存媒體複製業|22.629967|120.297097
南六企業股份有限公司二廠|高雄市燕巢區角宿里四林路１０８之８號|紡織業|22.7699484|120.3464548
南六企業股份有限公司|高雄市橋頭區筆秀里筆秀路88、88-1號|紡織業,化學製品製造業|22.7682348|120.3083751
南冕鋼鐵有限公司|高雄市大寮區琉球里農場路１９２號|金屬製品製造業|22.6169764|120.4271162
南凱企業社|高雄市路竹區竹園里新生路2巷251號|汽車及其零件製造業|22.8753033|120.2921375
南印實業有限公司大社廠|高雄市大社區保社里旗楠路８０巷２１０之２號|金屬製品製造業|22.7417336|120.3435848
南友電機有限公司|高雄市燕巢區安招里安林三街４０號|機械設備製造業|22.7873402|120.3315702
南和電機廠|高雄市三民區大順二路７３２號１樓|電力設備製造業|22.653943|120.318698
南寮加油站|高雄市彌陀區漁港路71號|加油站|22.7623155|120.2385788
南山企業股份有限公司|高雄市鳥松區仁美里美山路１０１號|其他製造業|22.6514111|120.3926257
南帝化學工業股份有限公司|高雄市林園區溪洲里工業一路９號|紙漿、紙及紙製品製造業,化學材料製造業,化學製品製造業|22.5103631|120.4048619
南帝科技股份有限公司|高雄市前鎮區新生路248之39號4樓、248之41號4樓|電子零組件製造業,電力設備製造業|22.5761761|120.318765
南弘實業股份有限公司|高雄市大寮區三隆里鳳林二路８７８號|木竹製品製造業|22.5852063|120.4057164
南揚企業股份有限公司高雄廠|高雄市大寮區後庄里民忠街２號|木竹製品製造業,塑膠製品製造業|22.640815|120.3891789
南旻企業有限公司|高雄市大樹區竹寮里竹寮路２０４號|印刷及資料儲存媒體複製業|22.665122|120.4252655
南昇塑膠工業股份有限公司|高雄市大社區保社里萬金路１８號|塑膠製品製造業|22.7487324|120.3439294
南昌工業社|高雄市前鎮區千富街２２３巷１０號|機械設備製造業|22.5846234|120.3136505
南榮企業股份有限公司|高雄市小港區平和路２０５號|金屬製品製造業,其他運輸工具及其零件製造業|22.5676733|120.3315694
南榮噴射器有限公司|高雄市仁武區竹後里鳳仁路２８７之３６號|機械設備製造業|22.7045884|120.342304
南樺化學工廠|高雄市小港區店中路４８巷９號|化學製品製造業|22.562812|120.354087
南泉化工實業有限公司燕巢廠|高雄市燕巢區瓊林里瓊林路１００３之３號|化學製品製造業|22.799419|120.3277048
南海鐵工廠股份有限公司|高雄市三民區遼寧二街３３７、３３８、３４５號|機械設備製造業|22.6432717|120.2926214
南海食品股份有限公司|高雄市鳥松區坔埔里大同路４巷一弄六號|食品製造業|22.65711|120.38466
南瑩造機有限公司|高雄市前鎮區仁愛里新福路５號|機械設備製造業|22.5797199|120.317414
南發珍食品有限公司|高雄市大寮區永芳里萬丹路458號2樓|食品製造業|22.6141812|120.4048413
南美工業有限公司|高雄市大社區保社里旗楠路99-1號|化學材料製造業|22.7493783|120.3455338
南美特科技股份有限公司二廠|高雄市楠梓區楠梓加工出口區中央路25號|化學製品製造業|22.7226024|120.3040921
南美特科技股份有限公司|高雄市楠梓區楠梓加工出口區中央路36號|化學製品製造業|22.7230435|120.3042325
南美製藥股份有限公司|高雄市大寮區大寮里大有二街８號|食品製造業,藥品及醫用化學製品製造業|22.5874872|120.4273342
南良企業有限公司|高雄市大寮區江山里鳳屏二路２２號|金屬製品製造業,機械設備製造業,汽車及其零件製造業,家具製造業|22.6403976|120.4095377
南訊開發科技有限公司|高雄市大寮區潮寮里田單六街１３號|金屬製品製造業|22.5722126|120.4315658
南超塑膠有限公司|高雄市岡山區竹圍里嘉新東路２之５號|塑膠製品製造業|22.8075909|120.306303
南鋼工業股份有限公司|高雄市鳳山區鳳仁路１８２號|金屬製品製造業,其他運輸工具及其零件製造業|22.636678|120.3712111
南鐵機械股份有限公司仁武廠|高雄市仁武區後安里後庄巷７０號|金屬製品製造業,其他運輸工具及其零件製造業|22.7118602|120.342228
南隆冷凍製冰廠股份有限公司|高雄市鼓山區濱海一路５７巷３弄３６號|食品製造業|22.6200644|120.2721881
南隆塑膠廠股份有限公司|高雄市美濃區吉東里中正路三段１８０號|紡織業|22.8605282|120.5359954
南隆鋼鐵股份有限公司高雄廠|高雄市燕巢區中安路３４４號|基本金屬製造業,金屬製品製造業|22.7860766|120.3519291
南鼓山加油站|高雄市鼓山區捷興二街46號|加油站|22.622013|120.2749353
南龍機器有限公司|高雄市大寮區後庄里民成街180號|金屬製品製造業|22.6392739|120.3814145
博升電子實業有限公司|高雄市湖內區太爺里中山路二段１７弄１０號|電子零組件製造業,電腦、電子產品及光學製品製造業|22.901283|120.2352523
博威特實業股份有限公司仁大廠|高雄市仁武區工業二路２５號|非金屬礦物製品製造業,金屬製品製造業|22.6991196|120.341461
博威特實業股份有限公司萬金廠|高雄市大社區旗楠路133巷15號1、2樓|化學材料製造業,塑膠製品製造業,非金屬礦物製品製造業,基本金屬製造業|22.7469708|120.3477001
博威特實業股份有限公司|高雄市仁武區後安里鳳仁路３５８號|化學材料製造業,塑膠製品製造業,非金屬礦物製品製造業,基本金屬製造業|22.7147493|120.336503
博愛加油站|高雄市三民區博愛一路335號|加油站|22.650071|120.3032326
博敦電子股份有限公司|高雄市三民區灣興里灣興街５５巷２號|電腦、電子產品及光學製品製造業|22.651308|120.311066
博森企業股份有限公司|高雄市岡山區本洲里本工南一路８號|基本金屬製造業|22.8047138|120.2707954
博淳金屬企業股份有限公司二廠|高雄市小港區中智路９號|金屬製品製造業|22.5307925|120.3646339
博淳金屬企業股份有限公司台機廠|高雄市小港區鳳宮里台機路１５號|金屬製品製造業|22.5557026|120.3406185
博群機械有限公司|高雄市前鎮區崗山橫街１之２號１樓|機械設備製造業|22.6028399|120.3330469
博耘企業股份有限公司|高雄市路竹區北嶺里民有路623號|金屬製品製造業|22.8216684|120.2742949
博航企業社|高雄市路竹區竹園里新生路334巷82號|金屬製品製造業|22.8714721|120.2910603
博衡興業有限公司|高雄市燕巢區瓊林里瓊招路３５號|金屬製品製造業|22.7954133|120.3315256
博詳企業有限公司一廠|高雄市岡山區聖森路188號|汽車及其零件製造業|22.798568|120.31192
博詳企業有限公司|高雄市岡山區碧紅里育仁街２６號１樓|其他運輸工具及其零件製造業|22.7951118|120.3045461
博麗彩色印刷股份有限公司|高雄市三民區鼎仁街８號|印刷及資料儲存媒體複製業|22.6695708|120.3228262
卡洛國際有限公司|高雄市橋頭區塩南路21號|成衣及服飾品製造業|22.744405|120.2895813
卡登實業股份有限公司三民廠|高雄市三民區十美里熱河二街２９７號|印刷及資料儲存媒體複製業|22.6445766|120.2935054
卡登實業股份有限公司前鎮三廠|高雄市前鎮區新都路１號３樓|印刷及資料儲存媒體複製業|22.5776266|120.3159139
卡登實業股份有限公司前鎮二廠|高雄市前鎮區新都路1號2樓|印刷及資料儲存媒體複製業|22.5776266|120.3159139
卡登實業股份有限公司前鎮廠|高雄市前鎮區新都路１號１樓|紙漿、紙及紙製品製造業,印刷及資料儲存媒體複製業,塑膠製品製造業|22.5776266|120.3159139
卡登實業股份有限公司臨海廠|高雄市小港區北林路３號|紙漿、紙及紙製品製造業,印刷及資料儲存媒體複製業,塑膠製品製造業,電腦、電子產品及光學製品製造業,機械設備製造業|22.5471058|120.3767706
卡登工業股份有限公司三民廠|高雄市三民區十美里熱河二街３０１號|印刷及資料儲存媒體複製業|22.644527|120.2934
卡蒙企業股份有限公司|高雄市橋頭區甲南里甲新路７１、７３號|其他製造業|22.7432941|120.2924711
卡訊電子股份有限公司三廠|高雄市前鎮區新衙路288-3號5樓之1|電腦、電子產品及光學製品製造業|22.582122|120.314701
卡訊電子股份有限公司二廠|高雄市前鎮區新衙路288-3號7樓之2、288-5號7樓之2|電腦、電子產品及光學製品製造業|22.582122|120.314701
卡訊電子股份有限公司|高雄市前鎮區信義里新衙路２８８之５號６樓之１、２８８之３號８樓之２|電腦、電子產品及光學製品製造業,電力設備製造業|22.582154|120.314748
卯利企業有限公司|高雄市大寮區潮寮里田單六街１６號|基本金屬製造業|22.5722118|120.4312676
印南企業股份有限公司|高雄市岡山區嘉新東路８４之１０號|電子零組件製造業,電力設備製造業|22.8231393|120.3269976
印隆興業股份有限公司|高雄市大寮區潮寮里田單七街１０號|基本金屬製造業|22.5713167|120.4314733
卸福企業社|高雄市阿蓮區中路里中路73-4號|汽車及其零件製造業,其他運輸工具及其零件製造業|22.8950761|120.2986736
原億企業社|高雄市鳳山區北門里建國路一段３９２號|機械設備製造業|22.6346351|120.3688512
原億陞鋼鐵有限公司|高雄市大寮區大寮里光華路１４號|基本金屬製造業,金屬製品製造業|22.585827|120.4192098
原塑實業股份有限公司高雄廠|高雄市大寮區大寮里大業街３９號|化學製品製造業|22.5882533|120.4300598
原大企業有限公司|高雄市岡山區岡山里嘉新西路３０巷２１號|金屬製品製造業,機械設備製造業|22.804414|120.293307
原敞工程有限公司|高雄市仁武區後安里永宏巷12弄16號|其他運輸工具及其零件製造業|22.7146071|120.3411442
原本生化科技股份有限公司|高雄市永安區維新里永工六路２之１號|食品製造業|22.8138816|120.2562695
原榮鋼鐵企業股份有限公司仁美廠|高雄市鳥松區仁美里美山路４９號|金屬製品製造業|22.6433287|120.3833285
原泰工業有限公司|高雄市三民區中華橫路７０號|機械設備製造業|22.640975|120.288912
原裕股份有限公司|高雄市大寮區潮寮里富民街１號|基本金屬製造業|22.575041|120.4289319
又新實業有限公司|高雄市大寮區琉球里農場路２１７號|機械設備製造業|22.6169673|120.4303066
又陞企業社|高雄市大寮區鳳屏二路41之8號|金屬製品製造業|22.6404494|120.404878
友利得金屬股份有限公司|高雄市岡山區為隨里為隨東路６２之２號|金屬製品製造業|22.8155489|120.2899803
友厚新科技股份有限公司|高雄市大寮區後庄里鳳屏一路１０９巷６１號|機械設備製造業|22.6318471|120.3859892
友和耐火材料工業股份有限公司|高雄市大寮區中庄里仁愛路３３６號|非金屬礦物製品製造業,機械設備製造業|22.6294511|120.3950002
友宏有限公司|阿蓮區港後里崙頂1-10號|屠宰場|22.8806219|120.3128588
友宏有限公司|高雄市阿蓮區港後里崙頂1-10號2樓|食品製造業|22.8806219|120.3128588
友富貿易有限公司|高雄市前鎮區新都路30號2樓|食品製造業|22.580167|120.314509
友情加油站|高雄市岡山區介壽東路83號|加油站|22.7861526|120.3134811
友成石灰工廠股份有限公司|高雄市小港區沿海三路友成巷1號|非金屬礦物製品製造業|22.5361864|120.3732673
友源機械有限公司大寮廠|高雄市大寮區大寮里大寮路３２３巷１０６號|金屬製品製造業,機械設備製造業|22.5945589|120.4151747
友立化工有限公司|高雄市梓官區梓信里信德街１４號|化學製品製造業|22.7654314|120.2555778
友荃科技實業股份有限公司|高雄市岡山區本洲里本工五路３號|電力設備製造業,機械設備製造業|22.8083091|120.2718583
友裕有限公司高雄廠|高雄市仁武區烏林里仁心路２５３之１號|機械設備製造業|22.6890325|120.3671611
友贊有限公司|高雄市仁武區後安里永宏巷１２弄３５號|機械設備製造業|22.7137594|120.3414895
友達光電股份有限公司高雄廠|南科高雄園區高雄市路竹區路科三路9號|電子零組件製造業|22.8384606|120.2586652
双一企業股份有限公司|高雄市仁武區竹後里竹工三巷４６號|金屬製品製造業,機械設備製造業|22.714666|120.3317485
叡鈞有限公司|高雄市大寮區永芳里萬丹路２０７之２號|機械設備製造業|22.6129804|120.3964828
古板企業有限公司|高雄市湖內區海山里和平路１９之５號|非金屬礦物製品製造業|22.8906576|120.2242747
可味軒麵包廠|高雄市楠梓區東寧里玉田街１０７號|食品製造業|22.731396|120.330545
可宸企業有限公司|高雄市路竹區復興路52號|金屬製品製造業|22.8499366|120.2707702
可成生物科技股份有限公司|高雄市路竹區路科二路57號1樓|其他製造業|22.8286823|120.2589894
可詮企業有限公司|高雄市前鎮區信義里興化街123號|金屬製品製造業,機械設備製造業|22.5842638|120.3119603
台互企業有限公司|高雄市大寮區興業路１７、１７之１號|食品製造業|22.5904106|120.4291244
台亞仁武加油站|高雄市仁武區鳳仁路304之3號|加油站|22.7092409|120.3405916
台亞台上加油站|高雄市岡山區成功路269號|加油站|22.808552|120.2988385
台亞大業加油站|高雄市前鎮區凱旋四路560號|加油站|22.5970587|120.3180566
台亞大舍甲加油站|高雄市梓官區和平路2號|加油站|22.7530293|120.2616626
台亞岡山交流道加油站|高雄市岡山區介壽東路3號|加油站|22.7865247|120.3161234
台亞明田加油站|高雄市路竹區中山路1016號|加油站|22.8520143|120.2616277
台亞林園加油站|高雄市林園區鳳林路三段650號|加油站|22.5263999|120.4010131
台亞林園工業區加油站|高雄市林園區沿海路一段149號|加油站|22.5006251|120.4026079
台亞楠梓交流道加油站|高雄市楠梓區鳳楠路45號|加油站|22.7221305|120.3311637
台亞程香加油站|高雄市岡山區岡燕路500號|加油站|22.7908173|120.3103555
台亞華盟加油站|高雄市三民區中華二路372號|加油站|22.6489879|120.2922239
台亞鳥松加油站|高雄市鳥松區中正路44之77號|加油站|22.6450094|120.3649192
台京企業股份有限公司高雄廠|高雄市永安區維新里永工一路１１之１號|金屬製品製造業|22.8139199|120.2543323
台住電子材料股份有限公司|高雄市楠梓區楠梓加工出口區楠梓加工出口區新建南路2號|基本金屬製造業|22.722199|120.310976
台刷股份有限公司|高雄市湖內區公館里中山路二段２５號|木竹製品製造業,金屬製品製造業,機械設備製造業|22.901879|120.2348715
台力橡膠股份有限公司分廠|高雄市阿蓮區石安里石安230-52號|橡膠製品製造業|22.88599|120.312905
台力橡膠股份有限公司岡山廠|高雄市岡山區本洲里本工路５０號|橡膠製品製造業|22.8136287|120.2734215
台力橡膠股份有限公司ㄧ廠|高雄市阿蓮區石安里石安230之67、68號|橡膠製品製造業|22.885416|120.312422
台力橡膠股份有限公司|高雄市阿蓮區阿蓮里中正路２１６巷５２號|橡膠製品製造業|22.8825732|120.3372411
台北氧氣股份有限公司高雄廠|高雄市阿蓮區港後里崙頂６４號|化學材料製造業|22.877746|120.3081461
台協化學股份有限公司大業廠|高雄市小港區龍鳳里大業南路３４號|非金屬礦物製品製造業|22.5289757|120.3663015
台協化學股份有限公司|高雄市小港區鳳森里中智街１０號|非金屬礦物製品製造業|22.5323596|120.3632901
台吉化工股份有限公司|高雄市鼓山區鼓山一路７７號|化學製品製造業|22.6254473|120.2773649
台圓實業有限公司|高雄市仁武區鳳仁路287之42號|化學材料製造業|22.7045884|120.342304
台城企業有限公司|高雄市大寮區過溪里華一街509號|機械設備製造業|22.5757578|120.4112224
台塑大金精密化學股份有限公司仁武廠|高雄市仁武區竹後里水管路１００號|化學材料製造業|22.7060776|120.3350507
台帽螺帽股份有限公司|高雄市路竹區鴨寮里復興路２８４號|金屬製品製造業|22.8452222|120.275501
台弟工業股份有限公司|高雄市楠梓區楠梓加工出口區開發路76號|機械設備製造業|22.7202424|120.3003496
台朔重工股份有限公司仁武廠|高雄市仁武區竹後里鳳仁路２８１之１號|機械設備製造業,其他製造業|22.7033167|120.3440933
台朔重工股份有限公司齒輪廠|高雄市仁武區鳳仁路２８１號|機械設備製造業|22.7033167|120.3440933
台東初鹿乳品有限公司|高雄市大社區保社里中正路329-3號|食品製造業|22.7432624|120.3494429
台棧企業有限公司|高雄市大寮區潮寮路88巷9號|木竹製品製造業|22.565627|120.4200192
台榮產業股份有限公司高雄飼料廠分廠|高雄市路竹區社南里大同路４８３號|食品製造業|22.8557385|120.2669928
台榮產業股份有限公司高雄飼料廠|高雄市路竹區社南里大同路５５０號|食品製造業|22.8546281|120.2671408
台橡股份有限公司岡山廠|高雄市岡山區本洲里本工ㄧ路３９號|橡膠製品製造業|22.8141983|120.2625371
台橡股份有限公司高雄廠|高雄市大社區三奶里興工路２號|化學材料製造業|22.7240014|120.3409705
台毅國際開發有限公司三廠|高雄市林園區下厝路89巷20之18號|金屬製品製造業|22.5021922|120.3735763
台毅國際開發有限公司二廠|高雄市林園區下厝路89巷20-16號|金屬製品製造業|22.5021922|120.3735763
台洋冷凍食品工業股份有限公司|高雄市大寮區過溪里永洋街２０號１樓|食品製造業|22.5765212|120.4185112
台濾實業股份有限公司|高雄市前鎮區新衙路288之2號6樓之1|機械設備製造業|22.582464|120.315125
台灣三井高科技股份有限公司|高雄市前鎮區高雄加工出口區南五路1號|電子零組件製造業|22.5929676|120.2955213
台灣三協通商股份有限公司|高雄市小港區港口里平和路２１１號|汽車及其零件製造業|22.568624|120.330791
台灣三和技術股份有限公司|高雄市大寮區後庄里民權街143號|金屬製品製造業|22.6425866|120.3999023
台灣三曜有限公司二廠|高雄市路竹區後鄉里順安路３２７號|金屬製品製造業|22.8350837|120.2418036
台灣三曜有限公司|高雄市路竹區後鄉里順安路３２９號|金屬製品製造業|22.8349838|120.2415926
台灣三美股份有限公司|高雄市大寮區江山里江山路８０號|電子零組件製造業,電腦、電子產品及光學製品製造業,電力設備製造業,其他製造業|22.6391702|120.406386
台灣三菱電梯股份有限公司高雄工廠|高雄市小港區港口里同利路１６號|機械設備製造業|22.567173|120.3297638
台灣世久有限公司|高雄市彌陀區漯底里漯底路１２４巷１５號|汽車及其零件製造業,其他運輸工具及其零件製造業|22.7689157|120.2448225
台灣中外爐工業股份有限公司小港廠|高雄市小港區山明里長泰街３５號|機械設備製造業|22.5444291|120.3745585
台灣中油股份有限公司天然氣事業部永安液化天然氣廠|高雄市永安區新港里新興路１之２０號|石油及煤製品製造業|22.8161465|120.210822
台灣中油股份有限公司煉製事業部高雄煉油廠|高雄市楠梓區宏南里左楠路2號|石油及煤製品製造業|22.7042341|120.302727
台灣中油股份有限公司石化事業部|高雄市林園區五福里石化二路３號|化學材料製造業|22.4987852|120.4066992
台灣丸和電子股份有限公司|高雄市楠梓區楠梓加工出口區楠梓加工出口區西二街1-2號|電子零組件製造業|22.7191879|120.305629
台灣之水企業有限公司|高雄市鳳山區鎮北里鎮北北巷２１－２４號|飲料製造業|22.6439359|120.3718788
台灣亞細亞興業股份有限公司|高雄市前鎮區高雄加工出口區西十街2之2號、高雄市前鎮區高雄加工出口區西十街4之2號、高雄市前鎮區高雄加工出口區西十街6之2號|紙漿、紙及紙製品製造業,電子零組件製造業|22.605893|120.288531
台灣伊格爾博格曼股份有限公司|高雄市路竹區北嶺二路18號|機械設備製造業|22.827059|120.2704846
台灣住友培科股份有限公司高雄廠|高雄市大寮區華西路１號|化學材料製造業|22.5769312|120.4227561
台灣住礦科技股份有限公司|高雄市楠梓區楠梓加工出口區東七街16、16-1、16-2號|電子零組件製造業|22.7236853|120.3100614
台灣佐藤股份有限公司|高雄市楠梓區楠梓加工出口區西七街16號|金屬製品製造業|22.7222685|120.3001376
台灣典範半導體股份有限公司|高雄市前鎮區高雄加工出口區南二路1號、高雄市前鎮區高雄加工出口區南三路2號、高雄市前鎮區高雄加工出口區南三路2號2樓、高雄市前鎮區高雄加工出口區南三路2號3樓、高雄市前鎮區高雄加工出口區南三路2號4樓、高雄市前鎮區高雄加工出口區南三路2號5樓|電子零組件製造業|22.5963738|120.2940055
台灣前川股份有限公司|高雄市前鎮區新展路11號|機械設備製造業|22.578262|120.316781
台灣創新生醫股份有限公司|高雄市路竹區路科二路63號2樓|其他製造業|22.8271904|120.2596559
台灣北澤股份有限公司第三廠|高雄市楠梓區楠梓加工出口區新經一路14號|金屬製品製造業,機械設備製造業|22.7215332|120.309969
台灣北澤股份有限公司第二廠|高雄市楠梓區楠梓加工出口區東六街8號|金屬製品製造業,機械設備製造業|22.7241802|120.3071272
台灣博士電子股份有限公司|高雄市前鎮區高雄加工出口區中六路七號、高雄市前鎮區高雄加工出口區南一路14號|電子零組件製造業|22.5981044|120.2905146
台灣卜蜂企業股份有限公司高雄廠|高雄市永安區維新里永安工業區永工二路７號|食品製造業|22.8093377|120.2520929
台灣卡勒克密封技術股份有限公司二廠|高雄市仁武區仁心路312之8號1樓|金屬製品製造業|22.6922914|120.3709055
台灣卡勒克密封技術股份有限公司|高雄市燕巢區鳳東路312巷27號|金屬製品製造業|22.7582814|120.3586737
台灣可林生化科技有限公司|高雄市仁武區竹後里竹業巷17號|化學製品製造業,其他製造業|22.711759|120.3317094
台灣合田實業股份有限公司|高雄市大社區保社里旗楠路６號|基本金屬製造業|22.7408181|120.3379812
台灣吉悌科技股份有限公司|高雄市小港區山明里長泰街４８號|電力設備製造業|22.544598|120.3743325
台灣國際造船股份有限公司|高雄市小港區鳳宮里中鋼路３號|機械設備製造業,其他運輸工具及其零件製造業|22.552346|120.345619
台灣堅彌股份有限公司|高雄市仁武區後安里永宏巷６號|其他製造業|22.7150166|120.3408422
台灣塑膠工業股份有限公司仁武廠|高雄市仁武區水管路１００號|食品製造業,化學材料製造業,化學製品製造業,金屬製品製造業,機械設備製造業|22.7059261|120.3350318
台灣塑膠工業股份有限公司林園廠|高雄市林園區溪州里石化一路１號|石油及煤製品製造業,化學材料製造業|22.507705|120.412675
台灣塑膠工業股份有限公司林園聚丙烯廠|高雄市林園區溪州里石化一路１之１號、工業一路１６號|化學材料製造業|22.507705|120.412675
台灣塑膠工業股份有限公司第四工場|高雄市前鎮區鎮北里建基街５號|化學製品製造業|22.5940164|120.2984812
台灣奈森克林股份有限公司|高雄市大寮區琉球里農場路208號2樓|化學製品製造業|22.6165167|120.4286072
台灣奈諾生物科技有限公司|高雄市前鎮區鎮北里擴建路１之２８號５樓|化學製品製造業|22.589787|120.302778
台灣好奇股份有限公司大發廠|高雄市大寮區裕民街6號|紙漿、紙及紙製品製造業,印刷及資料儲存媒體複製業,塑膠製品製造業|22.5847628|120.4340884
台灣安華股份有限公司|高雄市前鎮區新生路248-14號4樓|金屬製品製造業|22.5758377|120.3166987
台灣家美實業股份有限公司|高雄市燕巢區鳳雄里鳳東路２５１號|金屬製品製造業,機械設備製造業,家具製造業|22.7594284|120.3622407
台灣富品工業股份有限公司|高雄市岡山區本洲里本工西路１８號|金屬製品製造業|22.8132055|120.264256
台灣富視帝有限公司|高雄市前鎮區新生路248-20、248-22、248-25、248-27、248-29、248-31號5樓|電子零組件製造業|22.5759637|120.3168886
台灣寶理塑膠股份有限公司大發二廠|高雄市大寮區潮寮里建業路１３之１號|化學材料製造業|22.571185|120.4306798
台灣寶理塑膠股份有限公司大發廠|高雄市大寮區潮寮里建業路１３號|化學材料製造業|22.5709802|120.4270353
台灣寶綠壯食品有限公司大樹廠|高雄市大樹區九曲里九大路３８８號|食品製造業|22.6517807|120.4249448
台灣小山丘有限公司|高雄市燕巢區安林三街8號|飲料製造業|22.787|120.3300254
台灣小阪精工有限公司|高雄市仁武區後安里後庄巷39號|金屬製品製造業|22.7149658|120.3442257
台灣岡崎工業股份有限公司二廠|高雄市前鎮區高雄加工出口區東四街1、2、1之2、2之2|電力設備製造業|22.603345|120.2914972
台灣岡崎工業股份有限公司|高雄市前鎮區高雄加工出口區東六街1、2、3、4、5、6號|電力設備製造業|22.6034669|120.2900029
台灣巴斯夫股份有限公司高雄廠|高雄市大寮區光華路６號|化學製品製造業|22.6197259|120.3556401
台灣強克股份有限公司|高雄市仁武區後安里鳳仁路３２４之４號|機械設備製造業|22.7115093|120.3392514
台灣弼奧股份有限公司|高雄市大寮區大業街２１號|電力設備製造業|22.5842805|120.4305598
台灣彎管工業有限公司|高雄市橋頭區仕豐里仕豐路溝尾巷３０號|基本金屬製造業,金屬製品製造業,機械設備製造業|22.7491589|120.3066167
台灣志氯化學股份有限公司碱氯廠|高雄市小港區鳳森里中智街２５號|食品製造業,化學製品製造業|22.5323596|120.3632901
台灣恩智浦半導體股份有限公司一廠|高雄市楠梓區楠梓加工出口區經五路10號|電子零組件製造業|22.7185572|120.3034181
台灣恩智浦半導體股份有限公司三廠|高雄市楠梓區楠梓加工出口區經四路7號5~8樓|電子零組件製造業|22.7195753|120.3040901
台灣恩智浦半導體股份有限公司二廠|高雄市楠梓區楠梓加工出口區經四路7號|電子零組件製造業|22.7186269|120.3043357
台灣恩智浦半導體股份有限公司五廠|高雄市楠梓區楠梓加工出口區內環南路106-1、106-3、108-1、108-3、110-3、112-2、112-3號|電子零組件製造業|22.7203921|120.3102487
台灣恩智浦半導體股份有限公司六廠|高雄市楠梓區楠梓加工出口區西三街8-3號|電子零組件製造業|22.7191306|120.301597
台灣愛光塑膠股份有限公司|高雄市楠梓區楠梓加工出口區內環南路30號|塑膠製品製造業|22.7209222|120.3058778
台灣愛德克股份有限公司大樹工廠|高雄市大樹區九曲里九大路河濱一巷16號|塑膠製品製造業,電子零組件製造業|22.6572235|120.4261301
台灣愛德克股份有限公司|高雄市仁武區竹後里水管路８７號|塑膠製品製造業,金屬製品製造業,電子零組件製造業,機械設備製造業|22.7064952|120.3312135
台灣愛玉生技開發股份有限公司|高雄市前鎮區擴建路1之19號6樓|食品製造業|22.590247|120.302515
台灣愛生雅股份有限公司高雄廠|高雄市永安區維新里光明３巷２號|紡織業,紙漿、紙及紙製品製造業|22.8079527|120.2511793
台灣愷督科技股份有限公司|高雄市前鎮區高雄加工出口區南五路七號|機械設備製造業|22.5924714|120.2940787
台灣手把工業股份有限公司|高雄市燕巢區安招里安林三街３２號|汽車及其零件製造業|22.7872718|120.331166
台灣捷康綜合有限公司|高雄市楠梓區楠梓加工出口區東二街1-2、1-3、1-4、3-3、3-4號|電子零組件製造業|22.721234|120.309858
台灣摩根先進材料股份有限公司|高雄市小港區興業街２５號|非金屬礦物製品製造業|22.5262741|120.3629818
台灣敏科股份有限公司|高雄市大社區保社里萬金巷５之４號|紙漿、紙及紙製品製造業,電腦、電子產品及光學製品製造業|22.7535375|120.3421853
台灣敬中實業有限公司|高雄市仁武區竹後里鳳仁路２８５巷１６號|金屬製品製造業,汽車及其零件製造業,其他運輸工具及其零件製造業|22.7034916|120.3420318
台灣日東光學股份有限公司南科廠|高雄市路竹區路科十路11號7樓A室|電子零組件製造業|22.8403646|120.2558568
台灣日東電工股份有限公司第三工廠|高雄市前鎮區高雄加工出口區中六路5號|塑膠製品製造業|22.599425|120.291462
台灣日東電工股份有限公司|高雄市前鎮區高雄加工出口區南七路1、4號|塑膠製品製造業|22.5901981|120.2965352
台灣日電產三協股份有限公司|高雄市前鎮區高雄加工出口區南七路2號、6號|電子零組件製造業,機械設備製造業|22.5901981|120.2965352
台灣昭陽化學股份有限公司|高雄市前鎮區高雄加工出口區南四路四號|塑膠製品製造業,機械設備製造業|22.5939917|120.2945816
台灣時報社股份有限公司|高雄市仁武區高楠公路３２號|印刷及資料儲存媒體複製業|22.6982484|120.3231167
台灣望月貿易股份有限公司|高雄市鳳山區鎮北里鎮北北巷２５號|食品製造業|22.6439727|120.3718047
台灣東京窯業股份有限公司|高雄市大寮區大業街38號|非金屬礦物製品製造業|22.5863529|120.4305724
台灣東京輕電機股份有限公司|高雄市楠梓區楠梓加工出口區開發路15、17號|電子零組件製造業|22.7224629|120.3071657
台灣松尾股份有限公司|高雄市前鎮區高雄加工出口區西四街12、14、16、12-2、14-2、16-2、6-3、8-3、10-3、12-3、14-3、16-3號|電子零組件製造業,電腦、電子產品及光學製品製造業,電力設備製造業|22.602466|120.289101
台灣栗田股份有限公司高雄廠|高雄市橋頭區芋寮里芋林路２６０號|化學製品製造業|22.7646056|120.283497
台灣植體科技股份有限公司高科分公司|高雄市路竹區路科二路63號5樓|其他製造業|22.8286823|120.2589894
台灣檢驗科技股份有限公司高雄分公司|高雄市楠梓區楠梓加工出口區開發路61號|電腦、電子產品及光學製品製造業|22.7203336|120.3015186
台灣欣榮食品股份有限公司|高雄市旗山區三協里磚廠巷１６、１６之１、１６之２號|食品製造業|22.8678365|120.4734023
台灣正港製酒股份有限公司|高雄市仁武區竹後里鳳仁路３２９之１８號|飲料製造業|22.7039681|120.3433004
台灣毅隆精密工業有限公司民成廠|高雄市大寮區民成街125號|機械設備製造業|22.6404589|120.3849524
台灣毅隆精密工業有限公司|高雄市大社區保社里萬金巷7-10號|機械設備製造業|22.7530897|120.3424605
台灣氯乙烯工業股份有限公司林園廠|高雄市林園區溪州里工業一路一號|化學材料製造業|22.5135506|120.4060663
台灣水泥股份有限公司鼓山水泥製品廠仁武分廠|高雄市仁武區仁武里工業一路１６號|非金屬礦物製品製造業|22.6998855|120.3409064
台灣水泥股份有限公司鼓山水泥製品廠小港分廠|高雄市小港區鳳森里高雄市小港區中林路１２號|非金屬礦物製品製造業|22.536001|120.335609
台灣水泥股份有限公司鼓山水泥製品廠|高雄市鼓山區樹德里鼓山二路２７４號|非金屬礦物製品製造業|22.641409|120.278964
台灣波力梅有限公司第一廠|高雄市岡山區岡山路610巷27之1號|機械設備製造業|22.803975|120.291265
台灣波力梅有限公司|高雄市岡山區岡山路６１０巷２７號|機械設備製造業|22.803975|120.291265
台灣津村順天堂股份有限公司高雄廠|高雄市三民區建國一路４９２號|化學製品製造業|22.636734|120.314984
台灣海博特股份有限公司高雄加工區廠|高雄市前鎮區高雄加工出口區南七路3號|電腦、電子產品及光學製品製造業,家具製造業|22.589641|120.29571
台灣海博特股份有限公司|高雄市前鎮區千富街２４１巷２０號|電腦、電子產品及光學製品製造業,家具製造業|22.5844072|120.3133455
台灣海洋油壓機械科技股份有限公司|高雄市小港區台糖路7號1樓|其他運輸工具及其零件製造業|22.564648|120.344044
台灣淡水河谷股份有限公司|高雄市大寮區興業路４０號|基本金屬製造業|22.5904037|120.4287405
台灣淼昇電子有限公司|高雄市大寮區鳳林二路293-48號|塑膠製品製造業|22.5765645|120.4090676
台灣漢門德股份有限公司|高雄市前鎮區鎮北里高雄加工出口區南六路10號(1樓)|電力設備製造業|22.5912957|120.2945349
台灣牙板企業有限公司岡山廠|高雄市岡山區竹圍里嘉新東路２之１２號|金屬製品製造業|22.8075909|120.306303
台灣特浦股份有限公司|高雄市大寮區大寮里華中路４０號|其他製造業|22.5822373|120.428757
台灣百笑國際食品企業有限公司|高雄市大寮區光明路一段409巷17號|食品製造業|22.5645249|120.4141003
台灣皮拉工業股份有限公司|高雄市大寮區建民街２號|金屬製品製造業|22.577005|120.4307945
台灣益鉅金屬股份有限公司|高雄市仁武區竹後里１９鄰竹楠路３３巷１號|金屬製品製造業|22.706214|120.3331427
台灣盛百股份有限公司|高雄市岡山區本洲里本工西三路１號|金屬製品製造業|22.8143969|120.2671545
台灣石化合成股份有限公司林園廠|高雄市林園區工業二路１號|化學製品製造業|22.4990929|120.4146266
台灣矽微電子股份有限公司|高雄市前鎮區新衙路288-4號2樓之2、288-5號2樓之1、288-5號2樓之2|電腦、電子產品及光學製品製造業|22.581683|120.314331
台灣矽馬電子股份有限公司東四廠|高雄市前鎮區高雄加工出口區東四街3號|電子零組件製造業|22.6031865|120.2910655
台灣福興工業股份有限公司|高雄市岡山區本洲里育才路88號|金屬製品製造業,機械設備製造業,其他運輸工具及其零件製造業,家具製造業,其他製造業|22.8057582|120.2778859
台灣福雷電子股份有限公司三廠|高雄市楠梓區楠梓加工出口區楠梓加工出口區第二園區創意南路2號6、7樓|電子零組件製造業|22.7131081|120.3013305
